{
    "msg": "success",
    "code": 0,
    "data": [
      {
        "id": "12000041600000_20260204173814",
        "headline": "天津市气象台、天津市健康气象交叉创新中心联合发布脑卒中气象风险黄色预警/Ⅲ级/较重",
        "effective": "2026/02/04 17:38",
        "description": "天津市气象台、天津市健康气象交叉创新中心于2026年2月4日17时30分联合发布脑卒中气象风险黄色预警：受寒潮天气影响，5日至7日气温明显下降，最低气温降幅8℃左右，中心城区最低气温降至-8℃，其它地区降至-9到-12℃，4日后半夜至5日白天有北到东北风4-5级阵风6-8级，诱发脑卒中的气象风险较高，请广大市民注意防范。健康防护建议：1.适量减少户外活动，做好个人御寒防护，合理安排锻炼时间。2.建议脑卒中高危人群注意休息，低盐低糖饮食，减少高胆固醇食物摄入，增加高纤食物和饮水摄入量。3.伴有高血压、糖尿病、血脂异常的患者，建议及时规律监测血压、血糖、血脂等指标，按医嘱规律用药。4.原有基础疾病加重，或新出现言语不清、肢体无力、剧烈头痛、意识障碍等情况，及时就医。",
        "longitude": 117.2,
        "latitude": 39.1333,
        "type": "p0000003",
        "title": "天津市发布脑卒中气象风险黄色预警"
      },
      {
        "id": "13100041600000_20260204173805",
        "headline": "廊坊市气象台发布寒潮蓝色预警[Ⅳ级/一般]",
        "effective": "2026/02/04 17:38",
        "description": "廊坊市气象台2026年02月04日17时34分发布寒潮蓝色预警信号：受冷空气影响，预计全市将出现寒潮天气，48小时最低气温下降7~10℃，6日最高气温仅-2℃，最低气温将降至-10℃左右，郊外可达-11℃，请注意防范。",
        "longitude": 116.7052,
        "latitude": 39.5172,
        "type": "p0004004",
        "title": "河北省廊坊市发布寒潮蓝色预警"
      },
      {
        "id": "13102641600000_20260204173801",
        "headline": "文安县气象台发布大风蓝色预警[Ⅳ级/一般]",
        "effective": "2026/02/04 17:38",
        "description": "文安县气象台2026年02月04日17时35分发布大风蓝色预警信号：预计今天后半夜到明天白天，我县全部乡镇有4级左右西北风，阵风6-7级，请注意防范。",
        "longitude": 116.4601,
        "latitude": 38.8668,
        "type": "p0007004",
        "title": "河北省廊坊市文安县发布大风蓝色预警"
      },
      {
        "id": "12011941600000_20260204173735",
        "headline": "蓟州区气象台发布寒潮蓝色预警/Ⅳ级/一般",
        "effective": "2026/02/04 17:37",
        "description": "蓟州区气象台于2026年2月4日17时35分发布寒潮蓝色预警信号：受强冷空气影响，预计5日至7日我区所有乡镇（街道）将出现寒潮天气，最低气温下降9℃左右，7日早晨最低气温降至-12℃。4日后半夜至5日白天有北到东北风4-5级阵风6-8级，请有关单位和人员做好防范准备。",
        "longitude": "",
        "latitude": "",
        "type": "p0004004",
        "title": "发布寒潮蓝色预警"
      },
      {
        "id": "13082441600000_20260204173734",
        "headline": "滦平县气象台发布寒潮蓝色预警[Ⅳ级/一般]",
        "effective": "2026/02/04 17:37",
        "description": "滦平县气象台2026年02月04日17时38分发布寒潮蓝色预警信号：受蒙古国东移南下的冷空气影响，预计未来48小时内，我县全部乡镇平均气温将下降10℃以上。请注意防范。",
        "longitude": 117.3371,
        "latitude": 40.9366,
        "type": "p0004004",
        "title": "河北省承德市滦平县发布寒潮蓝色预警"
      },
      {
        "id": "13102241600000_20260204173701",
        "headline": "固安县气象台发布大风蓝色预警[Ⅳ级/一般]",
        "effective": "2026/02/04 17:37",
        "description": "固安县气象台2026年02月04日17时31分发布大风蓝色预警信号：预计今天后半夜到明天白天，我县全部乡镇有4级左右西北风，阵风6到7级，请注意防范。",
        "longitude": 116.2999,
        "latitude": 39.4365,
        "type": "p0007004",
        "title": "河北省廊坊市固安县发布大风蓝色预警"
      },
      {
        "id": "65310141600000_20260204173531",
        "headline": "喀什市气象台发布大风蓝色预警[IV级/一般]",
        "effective": "2026/02/04 17:35",
        "description": "喀什市气象台2026年2月4日17时35分发布大风蓝色预警信号：预计未来24小时内，疏附县大部及喀什市部分乡镇断续有5级以上西北阵风，疏附县木什乡、乌帕尔镇、石园镇，喀什市兰干镇、帕哈太克里乡、荒地乡等风口地带风力8～9级，局地阵风可达10～11级，同时伴有扬沙或短时沙尘暴，请注意防范。",
        "longitude": 75.9884,
        "latitude": 39.4679,
        "type": "p0007004",
        "title": "新疆维吾尔自治区喀什地区喀什市发布大风蓝色预警"
      },
      {
        "id": "37018141600000_20260204173141",
        "headline": "章丘区气象台发布寒潮蓝色预警信号[Ⅳ/一般]",
        "effective": "2026/02/04 17:35",
        "description": "章丘区气象台2026年2月4日17时35分发布寒潮蓝色预警信号：受较强冷空气影响，预计5日到7日我区全部街道（镇）将出现寒潮天气。气温明显下降，过程降温幅度8～12℃。6日白天最高气温全区-1℃左右；7日早晨气温降至最低，最低气温-6℃左右，南部山区-8℃左右。此外，5日至6日白天有平均风力4～5级阵风7～8级的偏北风。请注意防范。",
        "longitude": 117.5297,
        "latitude": 36.7143,
        "type": "p0004004",
        "title": "山东省济南市章丘市发布寒潮蓝色预警"
      },
      {
        "id": "13068341600000_20260204173449",
        "headline": "安国市气象台发布大风蓝色预警[Ⅳ级/一般]",
        "effective": "2026/02/04 17:34",
        "description": "安国市气象台2026年02月04日17时34分发布大风蓝色预警信号：预计今天夜间到明天白天，安国市全部乡镇有偏北风4到6级，阵风7到9级，请注意防范。",
        "longitude": 115.3314,
        "latitude": 38.4214,
        "type": "p0007004",
        "title": "河北省保定市安国市发布大风蓝色预警"
      },
      {
        "id": "52020341600000_20260204173444",
        "headline": "六枝特区气象台发布大雾橙色预警[Ⅱ/严重]",
        "effective": "2026/02/04 17:34",
        "description": "六枝特区气象台2026年02月04日17时34分升级大雾黄色预警信号为大雾橙色预警信号：预计未来12小时我区九龙、大用、郎岱等中东部及南部地区将出现能见度小于200米的雾并将持续，请注意防范。",
        "longitude": 105.4742,
        "latitude": 26.2107,
        "type": "p0005002",
        "title": "贵州省六盘水市六枝特区发布大雾橙色预警"
      },
      {
        "id": "13062741600000_20260204173404",
        "headline": "唐县气象台发布大风蓝色预警[Ⅳ级/一般]",
        "effective": "2026/02/04 17:34",
        "description": "唐县气象台2026年02月04日17时32分发布大风蓝色预警信号：预计今天夜间到明天白天，我县全部乡镇有偏北风4到6级，阵风7到9级，请注意防范。",
        "longitude": 114.9812,
        "latitude": 38.7485,
        "type": "p0007004",
        "title": "河北省保定市唐县发布大风蓝色预警"
      },
      {
        "id": "37078441600000_20260204173400",
        "headline": "安丘市气象台发布寒潮蓝色预警[IV级/一般]",
        "effective": "2026/02/04 17:34",
        "description": "安丘市气象台2026年02月04日17时34分发布寒潮蓝色预警信号：受较强冷空气影响，预计5日至7日我市各镇（街、区）将出现寒潮天气，过程降温8～10℃，7日早晨最低气温降至-9℃左右。另外，5日白天至6日风力较大，北风5～6级阵风7～8级。此次寒潮天气对交通运输、设施农业及室外作业等有不利影响，请注意防范。",
        "longitude": 119.2069,
        "latitude": 36.4274,
        "type": "p0004004",
        "title": "山东省潍坊市安丘市发布寒潮蓝色预警"
      },
      {
        "id": "13102341600000_20260204173354",
        "headline": "永清县气象台发布大风蓝色预警[Ⅳ级/一般]",
        "effective": "2026/02/04 17:33",
        "description": "永清县气象台2026年02月04日17时32分发布大风蓝色预警信号：预计今天后半夜到明天白天，我县各乡镇有4级左右西北风，阵风6-7级，请注意防范。",
        "longitude": 116.4981,
        "latitude": 39.3197,
        "type": "p0007004",
        "title": "河北省廊坊市永清县发布大风蓝色预警"
      },
      {
        "id": "21028341600000_20260204173300",
        "headline": "庄河市气象台发布大雾橙色预警信号[II级/重大]",
        "effective": "2026/02/04 17:33",
        "description": "大雾橙色预警信号：预计4日18时到5日10时，庄河市将出现能见度小于200米的浓雾天气，请相关部门做好防雾工作，广大市民减少户外活动，出行和进行户外活动时注意安全。庄河市气象台2026年02月04日17时33分发布",
        "longitude": 122.9706,
        "latitude": 39.6983,
        "type": "p0005002",
        "title": "辽宁省大连市庄河市发布大雾橙色预警"
      },
      {
        "id": "53280141600000_20260204173532",
        "headline": "景洪市气象台发布森林火险橙色预警[Ⅱ级/严重]",
        "effective": "2026/02/04 17:33",
        "description": "景洪市气象台、景洪市应急管理局、景洪市林业和草原局2026年2月4日17时35分联合发布森林火险气象Ⅱ级预警（橙色）：预计未来三天，我市大部地区维持晴热天气，无有效降水，气温高，局地风速较大，空气干燥，全市大部地区森林火险气象等级将达高危险级别，林内可燃物容易燃烧，森林火灾容易发生。请加强防范。",
        "longitude": 100.7979,
        "latitude": 22.0021,
        "type": "p0000002",
        "title": "云南省西双版纳傣族自治州景洪市发布森林火险橙色预警"
      },
      {
        "id": "37078641600000_20260204173300",
        "headline": "昌邑市气象台发布大风黄色预警[III级/较重]",
        "effective": "2026/02/04 17:33",
        "description": "昌邑市气象台2026年02月04日17时33分发布大风黄色预警信号：受较强冷空气影响，预计5日白天至6日我市各镇（街、区）北风风力较大，内陆地区5～6级阵风7～8级，北部海区7～8级阵风9～10级。请注意防范。",
        "longitude": 119.3945,
        "latitude": 36.8549,
        "type": "p0007003",
        "title": "山东省潍坊市昌邑市发布大风黄色预警"
      },
      {
        "id": "13102541600000_20260204173239",
        "headline": "大城县气象台发布大风蓝色预警[Ⅳ级/一般]",
        "effective": "2026/02/04 17:32",
        "description": "大城县气象台2026年02月04日17时32分发布大风蓝色预警信号：预计今天后半夜到明天白天，我县全部乡镇有4级左右西北风，阵风6-7级，请注意防范。",
        "longitude": 116.6407,
        "latitude": 38.6992,
        "type": "p0007004",
        "title": "河北省廊坊市大城县发布大风蓝色预警"
      },
      {
        "id": "13102441600000_20260204173231",
        "headline": "香河县气象台发布大风蓝色预警[Ⅳ级/一般]",
        "effective": "2026/02/04 17:32",
        "description": "香河县气象台2026年02月04日17时31分发布大风蓝色预警信号：预计今天后半夜到明天白天，我县各镇有4级左右西北风，阵风6-7级，请注意防范。",
        "longitude": 117.0072,
        "latitude": 39.7572,
        "type": "p0007004",
        "title": "河北省廊坊市香河县发布大风蓝色预警"
      },
      {
        "id": "13072441600000_20260204173215",
        "headline": "沽源县气象台发布大风蓝色预警[Ⅳ级/一般]",
        "effective": "2026/02/04 17:32",
        "description": "沽源县气象台2026年02月04日17时28分发布大风蓝色预警信号：预计今天傍晚到明天白天我县全部乡镇有5级左右西北风，阵风7～8级，局地可达9级，请注意防范。",
        "longitude": 115.6848,
        "latitude": 41.6674,
        "type": "p0007004",
        "title": "河北省张家口市沽源县发布大风蓝色预警"
      },
      {
        "id": "13082441600000_20260204173205",
        "headline": "滦平县气象台发布大风蓝色预警[Ⅳ级/一般]",
        "effective": "2026/02/04 17:32",
        "description": "滦平县气象台2026年02月04日17时31分发布大风蓝色预警信号：预计今天夜间到明天白天，我县全部乡镇有西北风4～6级，阵风7～9级，局地可达10级。请注意防范。",
        "longitude": 117.3371,
        "latitude": 40.9366,
        "type": "p0007004",
        "title": "河北省承德市滦平县发布大风蓝色预警"
      },
      {
        "id": "21028141600000_20260204173200",
        "headline": "瓦房店市气象台发布大雾橙色预警信号[II级/重大]",
        "effective": "2026/02/04 17:32",
        "description": "大雾橙色预警信号：预计4日18时到5日10时，瓦房店市将出现能见度小于200米的浓雾天气，请相关部门做好防雾工作。广大市民减少户外活动，出行和进行户外活动时注意安全。瓦房店市气象台2026年02月04日17时32分发布",
        "longitude": 122.0027,
        "latitude": 39.6307,
        "type": "p0005002",
        "title": "辽宁省大连市瓦房店市发布大雾橙色预警"
      },
      {
        "id": "13108241600000_20260204173125",
        "headline": "三河市气象台发布大风蓝色预警[Ⅳ级/一般]",
        "effective": "2026/02/04 17:31",
        "description": "三河市气象台2026年02月04日17时31分发布大风蓝色预警信号：预计今天后半夜到明天白天，我市全部镇区有4级左右西北风，阵风6-7级，请注意防范。",
        "longitude": 117.077,
        "latitude": 39.9828,
        "type": "p0007004",
        "title": "河北省廊坊市三河市发布大风蓝色预警"
      },
      {
        "id": "21108141600000_20260204173100",
        "headline": "灯塔市气象台发布寒潮黄色预警信号[III级/较大]",
        "effective": "2026/02/04 17:31",
        "description": "寒潮黄色预警信号：预计5日到6日，灯塔市最低气温将下降10℃以上，7日早晨最低气温-23℃到-21℃，东部山区最低气温为-26℃左右。预计5日偏北风4到6级，阵风7到8级，请市民注意增添衣物，预防低温引发的不适，设施农业做好保温。灯塔市气象台2026年02月04日17时31分发布",
        "longitude": 123.3259,
        "latitude": 41.4278,
        "type": "p0004003",
        "title": "辽宁省辽阳市灯塔市发布寒潮黄色预警"
      },
      {
        "id": "13072841600000_20260204173103",
        "headline": "怀安县气象台发布大风蓝色预警[Ⅳ级/一般]",
        "effective": "2026/02/04 17:31",
        "description": "怀安县气象台2026年02月04日17时25分发布大风蓝色预警信号：预计今天傍晚到明天白天我县全部乡镇有5级左右西北风，阵风7～8级，局地可达9级，请注意防范。",
        "longitude": 114.4224,
        "latitude": 40.6713,
        "type": "p0007004",
        "title": "河北省张家口市怀安县发布大风蓝色预警"
      },
      {
        "id": "21021441600000_20260204173100",
        "headline": "普兰店区气象台发布寒潮黄色预警信号[III级/较大]",
        "effective": "2026/02/04 17:31",
        "description": "寒潮黄色预警信号：预计4日20时到6日8时，普兰店区气温将明显下降，降温幅度12℃左右，6日8时前后气温降至最低，南部街道最低温度降至-16℃左右，北部街道最低温度降至-21℃左右。并伴有大风天气，5日8时至6日8时偏北风风力较大，近海、沿岸地区阵风最大可达8～10级，内陆阵风最大可达7～9级。请相关部门做好防寒潮工作，广大市民注意防风保暖，对各类作物积极采取防冻措施。普兰店区气象台2026年02月04日17时31分发布",
        "longitude": "",
        "latitude": "",
        "type": "p0004003",
        "title": "发布寒潮黄色预警"
      },
      {
        "id": "37070341600000_20260204173100",
        "headline": "寒亭区气象台发布寒潮蓝色预警[IV级/一般]",
        "effective": "2026/02/04 17:31",
        "description": "寒亭区气象台2026年02月04日17时31分发布寒潮蓝色预警信号：受较强冷空气影响，预计5日至7日我区各街道将出现寒潮天气。过程降温幅度8～10℃，7日早晨最低气温-8℃左右。同时5日白天至6日风力较大，北风4～5级阵风7级。此次寒潮天气对设施农业及室外作业等有不利影响，请注意防范。",
        "longitude": 119.2079,
        "latitude": 36.7721,
        "type": "p0004004",
        "title": "山东省潍坊市寒亭区发布寒潮蓝色预警"
      },
      {
        "id": "12011541600000_20260204173053",
        "headline": "宝坻区气象台发布寒潮蓝色预警/Ⅳ级/一般",
        "effective": "2026/02/04 17:30",
        "description": "宝坻区气象台于2026年02月04日17时25分发布寒潮蓝色预警信号：受强冷空气影响，预计5日至7日我区所有街镇将出现寒潮天气，最低气温下降8℃左右，7日早晨最低气温降至-11℃。4日后半夜至5日白天有北到东北风4-5级阵风6-8级，请有关单位和人员做好防范准备。",
        "longitude": 117.3081,
        "latitude": 39.717,
        "type": "p0004004",
        "title": "天津市宝坻区发布寒潮蓝色预警"
      },
      {
        "id": "13063641600000_20260204173045",
        "headline": "顺平县气象台发布大风蓝色预警[Ⅳ级/一般]",
        "effective": "2026/02/04 17:30",
        "description": "顺平县气象台2026年02月04日17时23分发布大风蓝色预警信号：预计今天夜间到明天白天，顺平县全部乡镇有偏北风4到6级，阵风7到9级，请注意防范。",
        "longitude": 115.1327,
        "latitude": 38.8451,
        "type": "p0007004",
        "title": "河北省保定市顺平县发布大风蓝色预警"
      },
      {
        "id": "13072241600000_20260204173036",
        "headline": "张北县气象台发布大风蓝色预警[Ⅳ级/一般]",
        "effective": "2026/02/04 17:30",
        "description": "张北县气象台2026年02月04日17时27分发布大风蓝色预警信号： 预计今天傍晚到明天白天我县全部乡镇有5级左右西北风，阵风7～8级，局地可达9级，请注意防范。",
        "longitude": 114.716,
        "latitude": 41.1517,
        "type": "p0007004",
        "title": "河北省张家口市张北县发布大风蓝色预警"
      },
      {
        "id": "13060941600000_20260204173034",
        "headline": "徐水区气象台发布大风蓝色预警[Ⅳ级/一般]",
        "effective": "2026/02/04 17:30",
        "description": "徐水区气象台2026年02月04日17时28分发布大风蓝色预警信号：预计今天夜间到明天白天，我区全部乡镇有偏北风4到6级，阵风7到9级，请注意防范。",
        "longitude": "",
        "latitude": "",
        "type": "p0007004",
        "title": "发布大风蓝色预警"
      },
      {
        "id": "13063341600000_20260204172946",
        "headline": "易县气象台发布大风蓝色预警[Ⅳ级/一般]",
        "effective": "2026/02/04 17:29",
        "description": "易县气象台2026年02月04日17时24分发布大风蓝色预警信号：预计今天夜间到明天白天，易县全部乡镇有偏北风4到6级，阵风7到9级，请注意防范。",
        "longitude": 115.5011,
        "latitude": 39.353,
        "type": "p0007004",
        "title": "河北省保定市易县发布大风蓝色预警"
      },
      {
        "id": "23030041600000_20260204172721",
        "headline": "鸡西市气象台发布道路冰雪黄色预警[III级/较重]",
        "effective": "2026/02/04 17:29",
        "description": "鸡西市气象台2026年02月04日17时10分发布道路冰雪黄色预警信号：受降雪天气影响，预计5日凌晨至夜间，鸡冠区、城子河区、麻山区、恒山区、梨树区、滴道区将出现对交通有一定影响的道路结冰或积雪，请有关单位和个人做好预防工作。",
        "longitude": 130.9667,
        "latitude": 45.2961,
        "type": "p0000003",
        "title": "黑龙江省鸡西市发布道路冰雪黄色预警"
      },
      {
        "id": "13063541600000_20260204172923",
        "headline": "蠡县气象台发布大风蓝色预警[Ⅳ级/一般]",
        "effective": "2026/02/04 17:29",
        "description": "蠡县气象台2026年02月04日17时26分发布大风蓝色预警信号：预计今天夜间到明天白天，蠡县全部乡镇有偏北风4到6级，阵风7到9级，请注意防范。",
        "longitude": 115.5836,
        "latitude": 38.4964,
        "type": "p0007004",
        "title": "河北省保定市蠡县发布大风蓝色预警"
      },
      {
        "id": "37078641600000_20260204172900",
        "headline": "昌邑市气象台发布寒潮蓝色预警[IV级/一般]",
        "effective": "2026/02/04 17:29",
        "description": "昌邑市气象台2026年02月04日17时29分发布寒潮蓝色预警信号：受较强冷空气影响，预计5日至7日我市各镇（街、区）将出现寒潮天气，过程降温6～8℃，最低气温-8～-6℃，出现在7日早晨。同时，5日白天至6日北风风力较大，内陆地区5～6级阵风7～8级，北部海区7～8级阵风9～10级。此次寒潮天气对交通运输、海上生产、设施农业及室外作业等有不利影响，请注意防范。",
        "longitude": 119.3945,
        "latitude": 36.8549,
        "type": "p0004004",
        "title": "山东省潍坊市昌邑市发布寒潮蓝色预警"
      },
      {
        "id": "13068241600000_20260204172755",
        "headline": "定州市气象台发布大风蓝色预警[Ⅳ级/一般]",
        "effective": "2026/02/04 17:27",
        "description": "定州市气象台2026年02月04日17时26分发布大风蓝色预警信号：预计今天夜间到明天白天，我市全部乡镇有偏北风4到6级，阵风7到9级，请注意防范。",
        "longitude": 114.9914,
        "latitude": 38.5176,
        "type": "p0007004",
        "title": "河北省保定市定州市发布大风蓝色预警"
      },
      {
        "id": "12011441600000_20260204172753",
        "headline": "武清区气象台发布陆地大风蓝色预警/Ⅳ级/一般",
        "effective": "2026/02/04 17:27",
        "description": "武清区气象台于2026年02月04日17时25分发布陆地大风蓝色预警信号：预计今天后半夜到明天白天我区所有镇街将有北到东北风4-5级阵风6-8级，请有关单位和人员做好防范准备。防御指南：1、政府及相关部门按照职责做好防大风工作；2、关好门窗，加固围板、棚架、广告牌等易被风吹动的搭建物，妥善安置易受大风影响的室外物品，遮盖建筑物资；3、行人注意尽量少骑自行车，刮风时不要在广告牌、临时搭建物等下面逗留；4、有关部门和单位注意森林防火。",
        "longitude": 117.058,
        "latitude": 39.3769,
        "type": "p0007004",
        "title": "天津市武清区发布大风蓝色预警"
      },
      {
        "id": "13102841600000_20260204172747",
        "headline": "大厂回族自治县气象台发布大风蓝色预警[Ⅳ级/一般]",
        "effective": "2026/02/04 17:27",
        "description": "大厂回族自治县气象台2026年02月04日17时26分发布大风蓝色预警信号：预计今天后半夜到明天白天，我县各镇有4级左右西北风，阵风6-7级，请注意防范。",
        "longitude": 116.9865,
        "latitude": 39.8893,
        "type": "p0007004",
        "title": "河北省廊坊市大厂回族自治县发布大风蓝色预警"
      },
      {
        "id": "13063441600000_20260204172743",
        "headline": "曲阳县气象台发布大风蓝色预警[Ⅳ级/一般]",
        "effective": "2026/02/04 17:27",
        "description": "曲阳县气象台2026年02月04日17时24分发布大风蓝色预警信号：预计今天夜间到明天白天，我县全部乡镇有偏北风4到6级，阵风7到9级，请注意防范。",
        "longitude": 114.7041,
        "latitude": 38.62,
        "type": "p0007004",
        "title": "河北省保定市曲阳县发布大风蓝色预警"
      },
      {
        "id": "12011241600000_20260204172742",
        "headline": "津南区气象台发布陆地大风蓝色预警/Ⅳ级/一般",
        "effective": "2026/02/04 17:27",
        "description": "津南区气象台于2026年02月04日17时24分发布陆地大风蓝色预警信号：预计今天后半夜到明天白天我区所有镇街将有北到东北风4～5级阵风6～8级，请有关单位和人员做好防范准备。",
        "longitude": 117.3825,
        "latitude": 38.9896,
        "type": "p0007004",
        "title": "天津市津南区发布大风蓝色预警"
      },
      {
        "id": "11010841600000_20260204172805",
        "headline": "海淀区气象台发布寒潮蓝色预警[IV/一般]",
        "effective": "2026/02/04 17:27",
        "description": "海淀区气象台04日17时27分发布寒潮蓝色预警，受强冷空气影响，预计5日至7日海淀区将出现寒潮天气，最低气温降幅8℃左右，5日至7日最低气温降至-9℃左右，请注意防范。",
        "longitude": 116.3103,
        "latitude": 39.9561,
        "type": "p0004004",
        "title": "北京市海淀区发布寒潮蓝色预警"
      },
      {
        "id": "15078341600000_20260204172359",
        "headline": "扎兰屯市气象台发布大风蓝色预警[IV级/一般]",
        "effective": "2026/02/04 17:26",
        "description": "扎兰屯市气象台2026年02月04日17时19分发布大风蓝色预警信号： 预计2026年02月04日20时至02月05日20时，哈多河镇、浩饶山镇、洼堤乡、蘑菇气镇、中和镇、大河湾镇、萨马街鄂温克民族乡、市区、成吉思汗镇、柴河镇、鄂伦春民族乡、达斡尔民族乡、卧牛河镇将受大风影响，阵风7级以上。请有关单位和人员做好防范准备。",
        "longitude": 122.7444,
        "latitude": 48.0074,
        "type": "p0007004",
        "title": "内蒙古自治区呼伦贝尔市扎兰屯市发布大风蓝色预警"
      },
      {
        "id": "12011841600000_20260204172546",
        "headline": "静海区气象台发布寒潮蓝色预警/Ⅳ级/一般",
        "effective": "2026/02/04 17:25",
        "description": "静海区气象台于2026年02月04日17时15分发布寒潮蓝色预警信号：受强冷空气影响，预计5日至7日我区所有乡镇街将出现寒潮天气，最低气温降幅可达9℃，7日早晨最低气温降至-9℃。4日后半夜到5日白天有北到东北风4-5级阵风6-8级，请有关单位和人员做好防范准备。",
        "longitude": "",
        "latitude": "",
        "type": "p0004004",
        "title": "发布寒潮蓝色预警"
      },
      {
        "id": "53262841600000_20260204172737",
        "headline": "富宁县气象台发布大雾黄色预警[Ⅲ级/较重]",
        "effective": "2026/02/04 17:25",
        "description": "富宁县气象台2026年2月4日17时28分发布大雾黄色预警信号：未来12小时我县境内将出现浓雾，请做好防护。",
        "longitude": 105.6286,
        "latitude": 23.6265,
        "type": "p0005003",
        "title": "云南省文山壮族苗族自治州富宁县发布大雾黄色预警"
      },
      {
        "id": "37070041600000_20260204172500",
        "headline": "潍坊市气象台发布寒潮蓝色预警[IV级/一般]",
        "effective": "2026/02/04 17:25",
        "description": "潍坊市气象台2026年02月04日17时25分发布寒潮蓝色预警信号：受较强冷空气影响，预计5日至7日潍城区、奎文区、坊子区、峡山区、滨海区、高新区、保税区全部乡镇（街道）将出现寒潮天气，过程降温幅度8～10℃；最低气温-8℃左右，出现在7日早晨。5日白天至6日北风风力较大，内陆地区5～6级阵风7～8级，北部海区7～8级阵风9～10级。请注意防范。",
        "longitude": 119.1713,
        "latitude": 36.7135,
        "type": "p0004004",
        "title": "山东省潍坊市发布寒潮蓝色预警"
      },
      {
        "id": "15072741600000_20260204172341",
        "headline": "新巴尔虎右旗气象台发布大风蓝色预警[IV级/一般]",
        "effective": "2026/02/04 17:24",
        "description": "新巴尔虎右旗气象台2026年02月04日17时17分发布大风蓝色预警信号：预计2026年02月04日20时至02月05日20时，阿拉坦额莫勒镇、阿日哈沙特镇、呼伦镇、贝尔苏木、克尔伦苏木、达赉苏木、宝格德乌拉苏木将受大风影响，阵风7级以上。请有关单位和人员做好防范准备。",
        "longitude": 116.826,
        "latitude": 48.6691,
        "type": "p0007004",
        "title": "内蒙古自治区呼伦贝尔市新巴尔虎右旗发布大风蓝色预警"
      },
      {
        "id": "13060841600000_20260204172449",
        "headline": "清苑区气象台发布大风蓝色预警[Ⅳ级/一般]",
        "effective": "2026/02/04 17:24",
        "description": "清苑区气象台2026年02月04日17时22分发布大风蓝色预警信号：预计今天夜间到明天白天，清苑区全部乡镇有偏北风4到6级，阵风7到9级，请注意防范。",
        "longitude": "",
        "latitude": "",
        "type": "p0007004",
        "title": "发布大风蓝色预警"
      },
      {
        "id": "13072541600000_20260204172434",
        "headline": "尚义县气象台发布大风蓝色预警[Ⅳ级/一般]",
        "effective": "2026/02/04 17:24",
        "description": "尚义县气象台2026年02月04日17时23分发布大风蓝色预警信号：预计今天傍晚到明天白天我县全部乡镇有5级左右西北风，阵风7～8级，局地可达9级，请注意防范。",
        "longitude": 113.9777,
        "latitude": 41.0801,
        "type": "p0007004",
        "title": "河北省张家口市尚义县发布大风蓝色预警"
      },
      {
        "id": "12011241600000_20260204172405",
        "headline": "津南区气象台发布寒潮蓝色预警/Ⅳ级/一般",
        "effective": "2026/02/04 17:24",
        "description": "津南区气象台于2026年02月04日17时11分发布寒潮蓝色预警信号：受强冷空气影响，预计5日至7日我区所有镇街将出现寒潮天气，最低气温下降8℃左右，7日早晨我区最低气温降至-9℃。4日后半夜至5日白天有北到东北风4~5级阵风6~8级。请有关单位和人员做好防范准备。",
        "longitude": 117.3825,
        "latitude": 38.9896,
        "type": "p0004004",
        "title": "天津市津南区发布寒潮蓝色预警"
      },
      {
        "id": "12011841600000_20260204172402",
        "headline": "静海区气象台发布陆地大风蓝色预警/Ⅳ级/一般",
        "effective": "2026/02/04 17:24",
        "description": "静海区气象台于2026年02月04日17时10分发布陆地大风蓝色预警信号：预计今天后半夜到明天白天，我区所有乡镇街将有北到东北风4-5级阵风6-8级，请有关单位和人员做好防范准备。",
        "longitude": "",
        "latitude": "",
        "type": "p0007004",
        "title": "发布大风蓝色预警"
      },
      {
        "id": "13098141600000_20260204172355",
        "headline": "泊头市气象台发布大风蓝色预警[Ⅳ级/一般]",
        "effective": "2026/02/04 17:23",
        "description": "泊头市气象台2026年02月04日17时24分发布大风蓝色预警信号：预计明天白天泊头市全部乡镇将受大风天气影响，有东北风4~5级，阵风6~7级，请注意防范。",
        "longitude": 116.5702,
        "latitude": 38.0735,
        "type": "p0007004",
        "title": "河北省沧州市泊头市发布大风蓝色预警"
      },
      {
        "id": "13100041600000_20260204172353",
        "headline": "廊坊市气象台发布大风蓝色预警[Ⅳ级/一般]",
        "effective": "2026/02/04 17:23",
        "description": "廊坊市气象台2026年02月04日17时23分发布大风蓝色预警信号：预计今天后半夜到明天白天，廊坊全市有4级左右西北风，阵风6-7级，请注意防范。",
        "longitude": 116.7052,
        "latitude": 39.5172,
        "type": "p0007004",
        "title": "河北省廊坊市发布大风蓝色预警"
      },
      {
        "id": "15072441600000_20260204172206",
        "headline": "鄂温克族自治旗气象台发布大风蓝色预警[IV级/一般]",
        "effective": "2026/02/04 17:23",
        "description": "鄂温克族自治旗气象台2026年02月04日17时20分发布大风蓝色预警信号：预计2026年2月4日20时至2月5日20时，红花尔基镇、伊敏苏木、伊敏河镇、辉苏木、锡尼河西苏木、锡尼河东苏木、巴彦塔拉达斡尔民族乡、巴彦嵯岗苏木、巴彦托海镇、大雁镇将受大风影响，阵风7级以上。请有关单位和人员做好防范准备。",
        "longitude": 119.754,
        "latitude": 49.1433,
        "type": "p0007004",
        "title": "内蒙古自治区呼伦贝尔市鄂温克族自治旗发布大风蓝色预警"
      },
      {
        "id": "12011641600000_20260204172336",
        "headline": "滨海新区气象台发布寒潮蓝色预警/Ⅳ级/一般",
        "effective": "2026/02/04 17:23",
        "description": "滨海新区气象台于2026年02月04日17时21分发布寒潮蓝色预警信号：受强冷空气影响，预计5日至7日滨海新区所有街镇将出现寒潮天气，最低气温下降8°C左右，7日早晨滨海新区最低气温降至-10°C，4日后半夜至5日白天有北到东北风5级阵风7~8级。请有关单位和人员做好防范准备。",
        "longitude": 117.6542,
        "latitude": 39.0328,
        "type": "p0004004",
        "title": "天津市滨海新区发布寒潮蓝色预警"
      },
      {
        "id": "13060741600000_20260204172325",
        "headline": "满城区气象台发布大风蓝色预警[Ⅳ级/一般]",
        "effective": "2026/02/04 17:23",
        "description": "满城区气象台2026年02月04日17时21分发布大风蓝色预警信号：预计今天夜间到明天白天，满城区全部乡镇有偏北风4到6级，阵风7到9级，请注意防范。",
        "longitude": "",
        "latitude": "",
        "type": "p0007004",
        "title": "发布大风蓝色预警"
      },
      {
        "id": "21028141600000_20260204172300",
        "headline": "瓦房店市气象台发布大风黄色预警信号[III级/较大]",
        "effective": "2026/02/04 17:23",
        "description": "大风黄色预警信号：预计5日5时到20时，瓦房店市偏北风5到6级、阵风7到8级，8时前后增强到阵风7到10级。请相关部门做好防大风工作，谨防高空坠物、注意出行及作业安全。瓦房店市气象台2026年02月04日17时23分发布",
        "longitude": 122.0027,
        "latitude": 39.6307,
        "type": "p0007003",
        "title": "辽宁省大连市瓦房店市发布大风黄色预警"
      },
      {
        "id": "12011541600000_20260204172300",
        "headline": "宝坻区气象台发布陆地大风蓝色预警/Ⅳ级/一般",
        "effective": "2026/02/04 17:23",
        "description": "宝坻区气象台于2026年02月04日17时20分发布陆地大风蓝色预警信号：预计今天后半夜到明天白天我区所有街镇将有北到东北风4-5级阵风6-8级，请有关单位和人员作好防范准备。",
        "longitude": 117.3081,
        "latitude": 39.717,
        "type": "p0007004",
        "title": "天津市宝坻区发布大风蓝色预警"
      },
      {
        "id": "11010841600000_20260204172410",
        "headline": "海淀区气象台发布大风蓝色预警[IV/一般]",
        "effective": "2026/02/04 17:23",
        "description": "海淀区气象台04日17时23分发布大风蓝色预警，预计4日后半夜至5日白天，海淀区有4级左右偏北风，阵风7、8级，山区及浅山区局地阵风可达9级以上，请注意防范。",
        "longitude": 116.3103,
        "latitude": 39.9561,
        "type": "p0007004",
        "title": "北京市海淀区发布大风蓝色预警"
      },
      {
        "id": "13072441600000_20260204172241",
        "headline": "沽源县气象台发布寒潮蓝色预警[Ⅳ级/一般]",
        "effective": "2026/02/04 17:22",
        "description": "沽源县气象台2026年02月04日17时18分发布寒潮蓝色预警信号： 受冷空气影响，预计未来48小时内我县全部乡镇气温持续下降，气温降幅可达9～12℃，达到寒潮蓝色标准；6日平均气温可达-21～-18℃，请注意防范。",
        "longitude": 115.6848,
        "latitude": 41.6674,
        "type": "p0004004",
        "title": "河北省张家口市沽源县发布寒潮蓝色预警"
      },
      {
        "id": "52012241600000_20260204172133",
        "headline": "息烽县气象台发布大雾橙色预警[Ⅱ/严重]",
        "effective": "2026/02/04 17:21",
        "description": "息烽县气象台2026年02月04日17时21分继续发布大雾橙色预警信号：目前我县永靖、永阳等乡镇（街道）已经出现能见度小于200米的雾，预计未来持续，请小心驾驶；请相关单位和人员参照气象灾害防御指南做好防灾减灾工作。",
        "longitude": 106.7377,
        "latitude": 27.0927,
        "type": "p0005002",
        "title": "贵州省贵阳市息烽县发布大雾橙色预警"
      },
      {
        "id": "13070541600000_20260204172109",
        "headline": "宣化区气象台发布大风蓝色预警[Ⅳ级/一般]",
        "effective": "2026/02/04 17:21",
        "description": "宣化区气象台2026年02月04日17时20分发布大风蓝色预警信号：预计今天傍晚到明天白天我区全部乡镇有5级左右西北风，阵风7～8级，局地可达9级以上，请注意防范。 ",
        "longitude": 115.0632,
        "latitude": 40.6094,
        "type": "p0007004",
        "title": "河北省张家口市宣化区发布大风蓝色预警"
      },
      {
        "id": "11011541600000_20260204165847",
        "headline": "大兴区气象台发布大风蓝色预警[IV/一般]",
        "effective": "2026/02/04 17:20",
        "description": "大兴区气象台04日17时20分发布大风蓝色预警，预计4日后半夜至5日白天，大兴区有4级左右偏北风，阵风7、8级，请注意防范。",
        "longitude": 116.338,
        "latitude": 39.7289,
        "type": "p0007004",
        "title": "北京市大兴区发布大风蓝色预警"
      },
      {
        "id": "11011541600000_20260204170948",
        "headline": "大兴区气象台发布寒潮蓝色预警[IV/一般]",
        "effective": "2026/02/04 17:20",
        "description": "大兴区气象台04日17时20分发布寒潮蓝色预警，受强冷空气影响，预计5日至7日大兴区将出现寒潮天气，最低气温降幅8℃左右，7日最低气温降至-10℃左右，请注意防范。",
        "longitude": 116.338,
        "latitude": 39.7289,
        "type": "p0004004",
        "title": "北京市大兴区发布寒潮蓝色预警"
      },
      {
        "id": "13042441600000_20260204171952",
        "headline": "成安县气象台发布大风蓝色预警[Ⅳ级/一般]",
        "effective": "2026/02/04 17:19",
        "description": "成安县气象台2026年02月04日17时18分发布大风蓝色预警信号：预计明天白天我县全部乡镇将受大风天气影响，平均风力4～6级，阵风风力可达7级，请注意防范。",
        "longitude": 114.6804,
        "latitude": 36.4438,
        "type": "p0007004",
        "title": "河北省邯郸市成安县发布大风蓝色预警"
      },
      {
        "id": "15078241600000_20260204171737",
        "headline": "牙克石市气象台发布大风蓝色预警[IV级/一般]",
        "effective": "2026/02/04 17:19",
        "description": "牙克石市气象台2026年02月04日17时14分发布大风蓝色预警信号：预计2026年02月04日20时至02月05日20时，博克图镇、绰河源镇、塔尔气镇将受大风影响，阵风7级以上。请有关单位和人员做好防范准备。",
        "longitude": 120.729,
        "latitude": 49.287,
        "type": "p0007004",
        "title": "内蒙古自治区呼伦贝尔市牙克石市发布大风蓝色预警"
      },
      {
        "id": "12011941600000_20260204171852",
        "headline": "蓟州区气象台发布陆地大风蓝色预警/Ⅳ级/一般",
        "effective": "2026/02/04 17:18",
        "description": "蓟州区气象台于2026年2月4日17时15分发布陆地大风蓝色预警信号：预计今天后半夜到明天白天我区所有乡镇（街道）将有北到东北风4-5级阵风6-8级，请有关单位和人员做好防范准备。",
        "longitude": "",
        "latitude": "",
        "type": "p0007004",
        "title": "发布大风蓝色预警"
      },
      {
        "id": "13060041600000_20260204171834",
        "headline": "保定市气象台发布大风蓝色预警[Ⅳ级/一般]",
        "effective": "2026/02/04 17:18",
        "description": "保定市气象台2026年02月04日17时17分发布大风蓝色预警信号：预计今天夜间到明天白天，保定市全部地区有偏北风4到6级，阵风7到9级，请注意防范。",
        "longitude": 115.4606,
        "latitude": 38.8642,
        "type": "p0007004",
        "title": "河北省保定市发布大风蓝色预警"
      },
      {
        "id": "45031241600000_20260204171833",
        "headline": "临桂区气象台发布大雾橙色预警信号[II级/严重]",
        "effective": "2026/02/04 17:18",
        "description": "临桂区气象台4日17时18分发布大雾橙色预警信号：预计未来6小时内临桂将出现能见度小于200米的浓雾，请做好防范。",
        "longitude": "",
        "latitude": "",
        "type": "p0005002",
        "title": "发布大雾橙色预警"
      },
      {
        "id": "21050041600000_20260204171800",
        "headline": "本溪市气象台发布寒潮橙色预警信号[II级/重大]",
        "effective": "2026/02/04 17:18",
        "description": "寒潮橙色预警信号：预计4日夜间到5日夜间，本溪市区最低气温将下降12到14℃。6日早晨最低气温将降至零下21℃到零下20℃。5日白天本溪市区偏北风5到6级，阵风7到8级，提醒公众要注意防寒防风，做好对大风降温天气的防御准备，同时需留意有关媒体报道大风降温的最新信息，以便采取进一步措施。本溪市气象台2026年02月04日17时18分发布",
        "longitude": 123.7606,
        "latitude": 41.2932,
        "type": "p0004002",
        "title": "辽宁省本溪市发布寒潮橙色预警"
      },
      {
        "id": "37152141600000_20260204172204",
        "headline": "阳谷县气象台发布寒潮蓝色预警信号[Ⅳ级/一般]",
        "effective": "2026/02/04 17:18",
        "description": "阳谷县气象台2026年02月04日17时18分发布寒潮蓝色预警信号：受较强冷空气影响，预计5至7日我县所辖镇街将出现寒潮天气，最低气温下降6～8℃。5日白天，北风4～5级，阵风6～7级，夜间风力减小；6日夜间阴有零星小雪，7日白天转多云；7日和8日早晨最低气温-7～-5℃，9日气温开始回升，请注意防范。",
        "longitude": 115.7843,
        "latitude": 36.1137,
        "type": "p0004004",
        "title": "山东省聊城市阳谷县发布寒潮蓝色预警"
      },
      {
        "id": "21021341600000_20260204171800",
        "headline": "金普新区气象台发布大雾橙色预警信号[II级/重大]",
        "effective": "2026/02/04 17:18",
        "description": "大雾橙色预警信号：预计4日18时到5日10时，金普新区将出现能见度小于200米的浓雾天气，请相关部门做好防雾工作。请广大市民减少户外活动，出行和进行户外活动时注意安全。金普新区气象台2026年02月04日17时18分发布",
        "longitude": 121.7894,
        "latitude": 39.0527,
        "type": "p0005002",
        "title": "辽宁省大连市金州区发布大雾橙色预警"
      },
      {
        "id": "12011041600000_20260204171759",
        "headline": "东丽区气象台发布陆地大风蓝色预警/Ⅳ级/一般",
        "effective": "2026/02/04 17:17",
        "description": "东丽区气象台于2026年02月04日17时15分发布陆地大风蓝色预警信号：预计今天后半夜到明天白天我区所有街道将有北到东北风4-5级阵风6-8级，请有关单位和人员做好防范准备。",
        "longitude": 117.314,
        "latitude": 39.0878,
        "type": "p0007004",
        "title": "天津市东丽区发布大风蓝色预警"
      },
      {
        "id": "15078141600000_20260204171604",
        "headline": "满洲里市气象台发布大风蓝色预警[IV级/一般]",
        "effective": "2026/02/04 17:17",
        "description": "满洲里市气象台2026年02月04日17时15分发布大风蓝色预警信号：预计2026年02月04日20时至02月05日20时，南区街道、北区街道、兴华街道、东山街道、新开河镇将受大风影响，阵风7级以上。请有关单位和人员做好防范准备。",
        "longitude": 117.4556,
        "latitude": 49.5908,
        "type": "p0007004",
        "title": "内蒙古自治区呼伦贝尔市满洲里市发布大风蓝色预警"
      },
      {
        "id": "32032241600000_20260204171749",
        "headline": "沛县气象台发布寒潮蓝色预警[Ⅳ级/一般]",
        "effective": "2026/02/04 17:17",
        "description": "沛县气象台2026年02月04日17时15分发布寒潮蓝色预警信号：受强冷空气影响，预计5-7日我县大部分镇（街道）48小时最低气温将下降7～9℃，并伴有陆上6到7级、河湖水面7到8级的东北风。7-8日早晨最低气温-6℃左右，有严重冰冻。县应急局、气象局联合提醒加强防范。",
        "longitude": 116.9372,
        "latitude": 34.729,
        "type": "p0004004",
        "title": "江苏省徐州市沛县发布寒潮蓝色预警"
      },
      {
        "id": "32038141600000_20260204171738",
        "headline": "新沂市气象台发布寒潮蓝色预警[Ⅳ级/一般]",
        "effective": "2026/02/04 17:17",
        "description": "新沂市气象台2026年02月04日17时15分发布寒潮蓝色预警信号：受强冷空气影响，预计5-7日我市大部分镇（街）48小时最低气温将下降7～9℃，并伴有陆上6到7级、河湖水面7到8级的东北风。7-8日早晨最低气温-6℃左右，有严重冰冻。市应急管理局、气象局联合提醒加强防范。",
        "longitude": 118.3458,
        "latitude": 34.3688,
        "type": "p0004004",
        "title": "江苏省徐州市新沂市发布寒潮蓝色预警"
      },
      {
        "id": "12011441600000_20260204171659",
        "headline": "武清区气象台发布寒潮蓝色预警/Ⅳ级/一般",
        "effective": "2026/02/04 17:16",
        "description": "武清区气象台于2026年02月04日17时13分发布寒潮蓝色预警信号：受强冷空气影响，预计5日至7日我区所有镇街将出现寒潮天气，最低气温下降8℃左右，7日早晨最低气温降至-10℃。4日后半夜至5日白天有北到东北风4-5级阵风6-8级。请有关单位和人员做好防范准备。防御指南：1、政府及有关部门按照职责做好防寒潮准备工作；2、注意添衣保暖；3、农、林、养殖业等要积极采取防霜冻、冰冻等防寒措施；4、做好防风准备工作。",
        "longitude": 117.058,
        "latitude": 39.3769,
        "type": "p0004004",
        "title": "天津市武清区发布寒潮蓝色预警"
      },
      {
        "id": "12011641600000_20260204171615",
        "headline": "滨海新区气象台发布陆地大风蓝色预警/Ⅳ级/一般",
        "effective": "2026/02/04 17:16",
        "description": "滨海新区气象台于2026年02月04日17时10分发布陆地大风蓝色预警信号：预计今天后半夜到明天白天滨海新区所有街镇将有北到东北风5级阵风7～8级，请有关单位和人员做好防范准备。",
        "longitude": 117.6542,
        "latitude": 39.0328,
        "type": "p0007004",
        "title": "天津市滨海新区发布大风蓝色预警"
      },
      {
        "id": "52052541600000_20260204171558",
        "headline": "纳雍县气象台发布大风蓝色预警[Ⅳ/一般]",
        "effective": "2026/02/04 17:15",
        "description": "纳雍县气象台2026年02月04日17时15分继续发布大风蓝色预警信号：24小时内我县猪场、张家湾、骔岭、勺窝、羊场、姑开、维新、厍东关、董地、化作、龙场及周边乡镇将受大风影响，平均风力可达6级，阵风7级并可能持续。请检查门窗、室外设备，妥善处置室外易落物品等；公众外出时尽量不要在玻璃门窗、广告牌附近逗留；加强公园、景区、游乐场所、水上水下、码头、高空等户外作业及活动管理，船舶谨慎驾驶或者停航；请相关部门做好防范应对工作，注意防范由于大风引起的各类灾害事故。",
        "longitude": 105.3753,
        "latitude": 26.7699,
        "type": "p0007004",
        "title": "贵州省纳雍县发布大风蓝色预警"
      },
      {
        "id": "13092441600000_20260204171551",
        "headline": "海兴县气象台发布大风蓝色预警[Ⅳ级/一般]",
        "effective": "2026/02/04 17:15",
        "description": "海兴县气象台2026年02月04日17时13分发布大风蓝色预警信号：预计明天白天我县全部乡镇及沿岸海域将受大风天气影响，内陆地区有东北风4~5级，阵风6~7级，沿岸海域及沿海地区有东北风5~6级，阵风7~8级，平均气温下降6~8℃，7日早晨最低气温降至-11~-10℃，请注意防范。",
        "longitude": 117.4966,
        "latitude": 38.1416,
        "type": "p0007004",
        "title": "河北省沧州市海兴县发布大风蓝色预警"
      },
      {
        "id": "32032441600000_20260204171558",
        "headline": "睢宁县气象台发布寒潮蓝色预警[Ⅳ级/一般]",
        "effective": "2026/02/04 17:15",
        "description": "睢宁县气象台2026年02月04日17时11分发布寒潮蓝色预警信号：受强冷空气影响，预计5-7日我县大部分镇（街道）48小时最低气温将下降7～9℃，并伴有陆上6到7级、河湖水面7到8级的东北风。7-8日早晨最低气温-6℃左右，有严重冰冻。县应急局、气象局联合提醒加强防范。",
        "longitude": 117.9507,
        "latitude": 33.8992,
        "type": "p0004004",
        "title": "江苏省徐州市睢宁县发布寒潮蓝色预警"
      },
      {
        "id": "12011041600000_20260204171538",
        "headline": "东丽区气象台发布寒潮蓝色预警/Ⅳ级/一般",
        "effective": "2026/02/04 17:15",
        "description": "东丽区气象台于2026年02月04日17时12分发布寒潮蓝色预警信号：受强冷空气影响，预计5日至7日我区所有街道将出现寒潮天气，最低气温下降8℃左右，7日早晨最低气温降至-8℃。4日后半夜至5日白天有北到东北风4-5级阵风6-8级。请有关单位和人员做好防范准备。",
        "longitude": 117.314,
        "latitude": 39.0878,
        "type": "p0004004",
        "title": "天津市东丽区发布寒潮蓝色预警"
      },
      {
        "id": "45022241600000_20260204171746",
        "headline": "柳城县气象台发布大雾黄色预警信号[III级/较重]",
        "effective": "2026/02/04 17:15",
        "description": "柳城县气象台2026年2月4日17时15分发布大雾黄色预警信号：预计未来12小时内我县将出现能见度小于500米的大雾天气，请做好防范。",
        "longitude": 109.2458,
        "latitude": 24.6551,
        "type": "p0005003",
        "title": "广西壮族自治区柳州市柳城县发布大雾黄色预警"
      },
      {
        "id": "21021441600000_20260204171500",
        "headline": "普兰店区气象台发布大风黄色预警信号[III级/较大]",
        "effective": "2026/02/04 17:15",
        "description": "大风黄色预警信号：预计5日6时到20时，普兰店区偏北风5到6级、阵风7到9级，请相关部门做好防大风工作，谨防高空坠物、注意出行及作业安全。普兰店区气象台2026年02月04日17时15分发布",
        "longitude": "",
        "latitude": "",
        "type": "p0007003",
        "title": "发布大风黄色预警"
      },
      {
        "id": "37078141600000_20260204171500",
        "headline": "青州市气象台发布寒潮蓝色预警[IV级/一般]",
        "effective": "2026/02/04 17:15",
        "description": "青州市气象台2026年02月04日17时15分发布寒潮蓝色预警信号：受较强冷空气影响，预计5日至7日我市各镇街将出现寒潮天气。过程降温幅度8～10℃，7日早晨最低气温-10～-8℃，西南山区-12～-10℃。同时5日白天至6日我市风力较大，北风5～6级阵风7～8级。此次寒潮天气对交通运输、设施农业及室外作业等有不利影响，请注意防范。",
        "longitude": 118.4847,
        "latitude": 36.6979,
        "type": "p0004004",
        "title": "山东省潍坊市青州市发布寒潮蓝色预警"
      },
      {
        "id": "13098341600000_20260204171458",
        "headline": "渤海新区黄骅市气象台发布大风蓝色预警[Ⅳ级/一般]",
        "effective": "2026/02/04 17:14",
        "description": "渤海新区黄骅市气象台2026年02月04日17时02分发布大风蓝色预警信号：预计明天白天我市全部辖区及沿岸海域将受大风天气影响，内陆地区有东北风4~5级，阵风6~7级，沿岸海域及沿海地区有东北风5~6级，阵风7~8级，请注意防范。",
        "longitude": 117.3438,
        "latitude": 38.3692,
        "type": "p0007004",
        "title": "河北省沧州市黄骅市发布大风蓝色预警"
      },
      {
        "id": "13070941600000_20260204171416",
        "headline": "崇礼区气象台发布大风蓝色预警[Ⅳ级/一般]",
        "effective": "2026/02/04 17:14",
        "description": "崇礼区气象台2026年02月04日17时07分发布大风蓝色预警信号：预计今天傍晚到明天白天我区全部乡镇有5级左右西北风，阵风7～8级，局地可达9级以上，请注意防范。 ",
        "longitude": "",
        "latitude": "",
        "type": "p0007004",
        "title": "发布大风蓝色预警"
      },
      {
        "id": "32032141600000_20260204171435",
        "headline": "丰县气象台发布寒潮蓝色预警[Ⅳ级/一般]",
        "effective": "2026/02/04 17:14",
        "description": "丰县气象台2026年02月04日17时12分发布寒潮蓝色预警信号：受强冷空气影响，预计5-7日我县大部分镇（街道）48小时最低气温将下降7～9℃，并伴有陆上6到7级、河湖水面7到8级的东北风。7-8日早晨最低气温-6℃左右，有严重冰冻。县应急局、气象局联合提醒加强防范。",
        "longitude": 116.5929,
        "latitude": 34.6969,
        "type": "p0004004",
        "title": "江苏省徐州市丰县发布寒潮蓝色预警"
      },
      {
        "id": "37078541600000_20260204171400",
        "headline": "高密市气象台发布寒潮蓝色预警[IV级/一般]",
        "effective": "2026/02/04 17:14",
        "description": "高密市气象台2026年02月04日17时14分发布寒潮蓝色预警信号：受较强冷空气影响，预计5日至7日我市各镇（街、区）将出现寒潮天气，过程降温8～10℃，7日早晨最低气温降至-8℃左右。另外，5日白天至6日风力较大，北风5～6级阵风7～8级。此次寒潮天气对交通运输、设施农业及室外作业等有不利影响，请注意防范。",
        "longitude": 119.757,
        "latitude": 36.3775,
        "type": "p0004004",
        "title": "山东省潍坊市高密市发布寒潮蓝色预警"
      },
      {
        "id": "21028141600000_20260204171300",
        "headline": "瓦房店市气象台发布寒潮黄色预警信号[III级/较大]",
        "effective": "2026/02/04 17:13",
        "description": "寒潮黄色预警信号：预计4日20时到6日8时，瓦房店市气温将明显下降，降温幅度12℃左右，6日8时前后气温降至最低，最低温度降至-15℃左右。并伴有大风天气，5日8时至6日8时偏北风风力较大，阵风最大可达8～10级。请相关部门做好防寒潮工作。广大市民注意防风保暖，对各类作物积极采取防冻措施。瓦房店市气象台2026年02月04日17时13分发布",
        "longitude": 122.0027,
        "latitude": 39.6307,
        "type": "p0004003",
        "title": "辽宁省大连市瓦房店市发布寒潮黄色预警"
      },
      {
        "id": "21021241600000_20260204171300",
        "headline": "旅顺口区气象台发布大风黄色预警信号[III级/较大]",
        "effective": "2026/02/04 17:13",
        "description": "大风黄色预警信号：预计5日8时到20时，旅顺口区陆地偏北风5到6级、阵风7到9级，请相关部门做好防大风工作。谨防高空坠物、注意出行及作业安全。旅顺口区气象台2026年02月04日17时13分发布",
        "longitude": 121.2671,
        "latitude": 38.812,
        "type": "p0007003",
        "title": "辽宁省大连市旅顺口区发布大风黄色预警"
      },
      {
        "id": "13082141600000_20260204171226",
        "headline": "承德县气象台发布寒潮蓝色预警[Ⅳ级/一般]",
        "effective": "2026/02/04 17:12",
        "description": "承德县气象台2026年02月04日17时13分发布寒潮蓝色预警信号：受蒙古国东移南下的冷空气影响，预计未来48小时内，我县全部乡镇平均气温将下降10℃以上。请注意防范。",
        "longitude": 118.1725,
        "latitude": 40.7686,
        "type": "p0004004",
        "title": "河北省承德市承德县发布寒潮蓝色预警"
      },
      {
        "id": "21021341600000_20260204171200",
        "headline": "金普新区气象台发布大风黄色预警信号[III级/较大]",
        "effective": "2026/02/04 17:12",
        "description": "大风黄色预警信号：预计5日5时到20时，金普新区偏北风5到7级、阵风8到10级，请相关部门做好防大风工作。谨防高空坠物、注意出行及作业安全。金普新区气象台2026年02月04日17时12分发布",
        "longitude": 121.7894,
        "latitude": 39.0527,
        "type": "p0007003",
        "title": "辽宁省大连市金州区发布大风黄色预警"
      },
      {
        "id": "23062341600000_20260204170318",
        "headline": "林甸县气象台发布道路冰雪黄色预警[III级/较重]",
        "effective": "2026/02/04 17:10",
        "description": "林甸县气象台2026年2月4日17时10分发布道路冰雪黄色预警信号：受降雪天气影响，未来24小时内我县将出现道路结冰或积雪，请有关单位和个人注意做好预防工作。 \n\n防御指南：\n1.交通、公安等部门要按照职责做好道路结冰或积雪的应对准备工作；\n2.驾驶人员应当注意路况，安全行驶；\n3.行人外出尽量少骑自行车，注意防滑。",
        "longitude": 124.8777,
        "latitude": 47.1864,
        "type": "p0000003",
        "title": "黑龙江省大庆市林甸县发布道路冰雪黄色预警"
      },
      {
        "id": "15220241600000_20260204171001",
        "headline": "阿尔山市气象台发布大风蓝色预警[IV级/一般]",
        "effective": "2026/02/04 17:10",
        "description": "阿尔山市气象台2026年02月04日17时10分发布大风蓝色预警信号：预计未来24小时我市大部分地区将受大风影响，平均风力5-6级，阵风可达7级以上，请有关单位和人员做好防范准备。",
        "longitude": 119.9437,
        "latitude": 47.177,
        "type": "p0007004",
        "title": "内蒙古自治区兴安盟阿尔山市发布大风蓝色预警"
      },
      {
        "id": "32038241600000_20260204171012",
        "headline": "邳州市气象台发布寒潮蓝色预警[Ⅳ级/一般]",
        "effective": "2026/02/04 17:10",
        "description": "邳州市气象台2026年02月04日17时07分发布寒潮蓝色预警信号：受强冷空气影响，预计5-7日我市大部分镇（街道）48小时最低气温将下降7～9℃，并伴有陆上6到7级、河湖水面7到8级的东北风。7-8日早晨最低气温-6℃左右，有严重冰冻。市应急局、气象局联合提醒加强防范。",
        "longitude": 117.9639,
        "latitude": 34.3147,
        "type": "p0004004",
        "title": "江苏省徐州市邳州市发布寒潮蓝色预警"
      },
      {
        "id": "21148141600000_20260204171000",
        "headline": "兴城市气象台发布寒潮蓝色预警信号[Ⅳ级/一般]",
        "effective": "2026/02/04 17:10",
        "description": "寒潮蓝色预警信号：预计4日夜间到6日，兴城市最低气温将下降8℃到11℃，7日早晨最低气温零下19℃到零下17℃；预计4日20时到6日20时渤海北部海域偏北风5到6级、阵风7到9级，4日20时到6日08时兴城市偏北风5到6级、阵风7到9级，请注意防风防寒，建议水产养殖业采取防护措施。兴城市气象台2026年02月04日17时10分发布",
        "longitude": 120.7294,
        "latitude": 40.6194,
        "type": "p0004004",
        "title": "辽宁省葫芦岛市兴城市发布寒潮蓝色预警"
      },
      {
        "id": "37072541600000_20260204171000",
        "headline": "昌乐县气象台发布寒潮蓝色预警[IV级/一般]",
        "effective": "2026/02/04 17:10",
        "description": "昌乐县气象台2026年02月04日17时10分发布寒潮蓝色预警信号：受较强冷空气影响，预计5日至7日我县全部镇（街、区）将出现寒潮天气，过程降温8～10℃，7日早晨最低气温可达-8℃。同时5日白天至6日风力较大，北风4～5级阵风7级。此次寒潮天气对交通运输、城市运行、室外作业和设施农业等有不利影响，请加强防范。",
        "longitude": 118.84,
        "latitude": 36.7033,
        "type": "p0004004",
        "title": "山东省潍坊市昌乐县发布寒潮蓝色预警"
      },
      {
        "id": "13082241600000_20260204170947",
        "headline": "兴隆县气象台发布寒潮蓝色预警[Ⅳ级/一般]",
        "effective": "2026/02/04 17:09",
        "description": "兴隆县气象台2026年02月04日17时00分发布寒潮蓝色预警信号：受蒙古国东移南下的冷空气影响，预计未来48小时内，我县全部乡镇平均气温将下降10℃以上，请注意防范。",
        "longitude": 117.5071,
        "latitude": 40.4185,
        "type": "p0004004",
        "title": "河北省承德市兴隆县发布寒潮蓝色预警"
      },
      {
        "id": "13098241600000_20260204170924",
        "headline": "任丘市气象台发布大风蓝色预警[Ⅳ级/一般]",
        "effective": "2026/02/04 17:09",
        "description": "任丘市气象台2026年02月04日17时10分发布大风蓝色预警信号：预计明天白天任丘市全部乡镇将受大风天气影响，有东北风4~5级，阵风6~7级，平均气温下降6~8℃，7日早晨最低气温降至-11~-10℃，请注意防范。",
        "longitude": 116.1068,
        "latitude": 38.7065,
        "type": "p0007004",
        "title": "河北省沧州市任丘市发布大风蓝色预警"
      },
      {
        "id": "21029941600000_20260204170900",
        "headline": "长兴岛经济技术开发区气象台发布大风黄色预警信号[III级/较大]",
        "effective": "2026/02/04 17:09",
        "description": "大风黄色预警信号：预计5日5时到20时，长兴岛街道和交流岛街道偏北风5到6级、阵风7到8级，8时前后增强到阵风7到10级。请相关部门做好防大风工作，谨防高空坠物、注意出行及作业安全。长兴岛经济技术开发区气象台2026年02月04日17时09分发布",
        "longitude": "",
        "latitude": "",
        "type": "p0007003",
        "title": "发布大风黄色预警"
      },
      {
        "id": "21021241600000_20260204170800",
        "headline": "旅顺口区气象台发布寒潮黄色预警信号[III级/较大]",
        "effective": "2026/02/04 17:08",
        "description": "寒潮黄色预警信号：预计4日20时到6日8时，旅顺口区陆地气温将明显下降，降温幅度12℃左右，6日8时前后气温降至最低，最低温度降至-13℃左右。并伴有大风天气，5日8时至6日8时偏北风风力较大，近海、沿岸地区阵风最大可达8～10级，内陆阵风最大可达7～9级，请相关部门做好防寒潮工作。请广大市民注意防风保暖，对各类作物积极采取防冻措施。旅顺口区气象台2026年02月04日17时08分发布",
        "longitude": 121.2671,
        "latitude": 38.812,
        "type": "p0004003",
        "title": "辽宁省大连市旅顺口区发布寒潮黄色预警"
      },
      {
        "id": "23122341600000_20260204170219",
        "headline": "青冈县气象台发布道路冰雪黄色预警[III级/较重]",
        "effective": "2026/02/04 17:08",
        "description": "青冈县气象台2026年2月4日17时05分发布道路冰雪黄色预警信号：受降雪天气影响，预计未来24小时我县大部分地区将出现道路结冰或积雪，对交通有一定影响，请有关单位和个人做好预防工作。",
        "longitude": 126.1123,
        "latitude": 46.6866,
        "type": "p0000003",
        "title": "黑龙江省绥化市青冈县发布道路冰雪黄色预警"
      },
      {
        "id": "13082741600000_20260204170852",
        "headline": "宽城满族自治县气象台发布寒潮蓝色预警[Ⅳ级/一般]",
        "effective": "2026/02/04 17:08",
        "description": "宽城满族自治县气象台2026年02月04日17时05分发布寒潮蓝色预警信号：受蒙古国东移南下的冷空气影响，预计未来48小时内，我县全部乡镇平均气温将下降10℃以上。请注意防范。",
        "longitude": 118.4886,
        "latitude": 40.608,
        "type": "p0004004",
        "title": "河北省承德市宽城满族自治县发布寒潮蓝色预警"
      },
      {
        "id": "45020641600000_20260204171032",
        "headline": "柳江区气象台发布大雾黄色预警信号[III级/较重]",
        "effective": "2026/02/04 17:08",
        "description": "柳江区气象台2026年2月4日17时8分发布大雾黄色预警信号：预计未来12小时内柳江区将出现能见度小于500米的大雾天气，请注意防范。",
        "longitude": "",
        "latitude": "",
        "type": "p0005003",
        "title": "发布大雾黄色预警"
      },
      {
        "id": "15070041600000_20260204170217",
        "headline": "呼伦贝尔市气象台发布大风蓝色预警[IV级/一般]",
        "effective": "2026/02/04 17:08",
        "description": "呼伦贝尔市气象台2026年02月04日17时02分发布大风蓝色预警信号：预计2026年02月04日20时至02月05日20时，扎赉诺尔区、阿荣旗、莫力达瓦达斡尔族自治旗大部、鄂温克族自治旗西南部、新巴尔虎左旗、新巴尔虎右旗、满洲里市、牙克石市南部、扎兰屯市将受大风影响，阵风7级以上。请有关单位和人员做好防范准备。",
        "longitude": 120.8016,
        "latitude": 50.3156,
        "type": "p0007004",
        "title": "内蒙古自治区呼伦贝尔市发布大风蓝色预警"
      },
      {
        "id": "13082641600000_20260204170803",
        "headline": "丰宁满族自治县气象台发布寒潮蓝色预警[Ⅳ级/一般]",
        "effective": "2026/02/04 17:08",
        "description": "丰宁满族自治县气象台2026年02月04日17时05分发布寒潮蓝色预警信号：受蒙古国东移南下的冷空气影响，预计未来48小时内，我县全部乡镇平均气温将下降10℃以上，请注意防范。",
        "longitude": 116.6512,
        "latitude": 41.2099,
        "type": "p0004004",
        "title": "河北省承德市丰宁满族自治县发布寒潮蓝色预警"
      },
      {
        "id": "21068141600000_20260204170800",
        "headline": "东港市气象台发布大风蓝色预警信号[Ⅳ级/一般]",
        "effective": "2026/02/04 17:08",
        "description": "大风蓝色预警信号：预计5日2时到5日8时，黄海北部海域偏北风6级、阵风7级，请注意航行安全，加固临时搭建物，防范大风带来的不利影响。东港市气象台2026年02月04日17时08分发布",
        "longitude": 124.1494,
        "latitude": 39.8835,
        "type": "p0007004",
        "title": "辽宁省丹东市东港市发布大风蓝色预警"
      },
      {
        "id": "21102141600000_20260204170700",
        "headline": "辽阳县气象台发布寒潮黄色预警信号[III级/较大]",
        "effective": "2026/02/04 17:07",
        "description": "寒潮黄色预警信号：预计5日到6日，辽阳县最低气温将下降10℃以上，7日早晨最低气温-23℃到-21℃，东部山区最低气温为-26℃左右。预计5日偏北风4到6级，阵风7到8级，请市民注意增添衣物，预防低温引发的不适,设施农业做好保温。辽阳县气象台2026年02月04日17时07分发布",
        "longitude": 123.0797,
        "latitude": 41.2165,
        "type": "p0004003",
        "title": "辽宁省辽阳市辽阳县发布寒潮黄色预警"
      },
      {
        "id": "53232641600000_20260204170843",
        "headline": "大姚县气象台发布大风蓝色预警[Ⅳ级/一般]",
        "effective": "2026/02/04 17:06",
        "description": "大姚县气象台2026年02月04日17时08分发布大风蓝色预警信号：预计未来12小时内我县大部乡镇可能受大风影响，将出现阵风7到8级的大风，请注意防范。",
        "longitude": 101.3236,
        "latitude": 25.7223,
        "type": "p0007004",
        "title": "云南省楚雄彝族自治州大姚县发布大风蓝色预警"
      },
      {
        "id": "12000041600000_20260204170621",
        "headline": "天津市气象台发布陆地大风蓝色预警/Ⅳ级/一般",
        "effective": "2026/02/04 17:06",
        "description": "天津市气象台于2026年02月04日17时08分发布陆地大风蓝色预警信号：预计今天后半夜到明天白天我市将有北到东北风4-5级阵风6-8级，请有关单位和人员做好防范准备。",
        "longitude": 117.2,
        "latitude": 39.1333,
        "type": "p0007004",
        "title": "天津市发布大风蓝色预警"
      },
      {
        "id": "13082741600000_20260204170617",
        "headline": "宽城满族自治县气象台发布大风蓝色预警[Ⅳ级/一般]",
        "effective": "2026/02/04 17:06",
        "description": "宽城满族自治县气象台2026年02月04日17时03分发布大风蓝色预警信号：预计今天夜间到明天白天，我县全部乡镇有西北风4～6级，阵风7～9级，部分乡镇可达10级。请注意防范。",
        "longitude": 118.4886,
        "latitude": 40.608,
        "type": "p0007004",
        "title": "河北省承德市宽城满族自治县发布大风蓝色预警"
      },
      {
        "id": "65432441600000_20260204170603",
        "headline": "哈巴河县气象台发布大风黄色预警[III级/较重]",
        "effective": "2026/02/04 17:06",
        "description": "哈巴河县气象台2026年2月4日17时06分发布大风黄色预警信号：预计2026年2月5日23时～7日03时，萨尔布拉克镇、阿克齐镇、库勒拜镇、萨尔塔木乡、加依勒玛乡有8～9级偏东风；额尔齐斯河沿线、龙源风电场、齐巴尔镇、齐德哈仁大桥及其南部区域风力可达10级。G219吉木乃—哈巴河路段、G219塔依所依干—铁热克提乡路段、G331哈巴河—布尔津路段、布哈一级公路、铜矿公路将会出现不同程度的风吹雪，请注意加强防范。",
        "longitude": 86.419,
        "latitude": 48.0593,
        "type": "p0007003",
        "title": "新疆维吾尔自治区阿勒泰地区哈巴河县发布大风黄色预警"
      },
      {
        "id": "21060041600000_20260204170500",
        "headline": "丹东市气象台发布大雾黄色预警信号[III级/较大]",
        "effective": "2026/02/04 17:05",
        "description": "大雾黄色预警信号：预计4日夜间，丹东市区将出现能见度小于500米的大雾天气，请注意防范大雾对交通运输带来的不利影响，户外活动注意安全。丹东市气象台2026年02月04日17时05分发布",
        "longitude": 124.3767,
        "latitude": 40.128,
        "type": "p0005003",
        "title": "辽宁省丹东市发布大雾黄色预警"
      },
      {
        "id": "45032641600000_20260204170607",
        "headline": "永福县气象台发布大雾橙色预警信号[II级/严重]",
        "effective": "2026/02/04 17:05",
        "description": "永福县气象台4日17时5分发布大雾橙色预警信号：预计未来6小时内我县将出现能见度小于200米的浓雾，请做好防范。",
        "longitude": 109.9892,
        "latitude": 24.9867,
        "type": "p0005002",
        "title": "广西壮族自治区桂林市永福县发布大雾橙色预警"
      },
      {
        "id": "37158141600000_20260204170713",
        "headline": "临清市气象台发布寒潮蓝色预警信号[Ⅳ/一般]",
        "effective": "2026/02/04 17:05",
        "description": "临清市气象台2026年02月04日17时05分发布寒潮蓝色预警信号：受较强冷空气影响，预计5至7日我市所辖镇街将出现寒潮天气，最低气温下降6～8℃。5日白天，北风4～5级，阵风6～7级，夜间风力减小；6日夜间阴有零星小雪，7日白天转多云；7日和8日早晨最低气温-7～-5℃，9日气温开始回升，请注意防范。",
        "longitude": 115.7135,
        "latitude": 36.8426,
        "type": "p0004004",
        "title": "山东省聊城市临清市发布寒潮蓝色预警"
      },
      {
        "id": "37162341600000_20260204165543",
        "headline": "无棣县气象台发布大风蓝色预警信号[Ⅳ/一般]",
        "effective": "2026/02/04 17:05",
        "description": "无棣县气象台2026年02月04日17时05分发布大风蓝色预警信号。受较强冷空气影响，预计5日白天到夜间我县全部镇街东北风较大，内陆地区4～5级阵风6～7级，北部近海5～6级阵风7～8级。请注意防范。",
        "longitude": 117.6163,
        "latitude": 37.7408,
        "type": "p0007004",
        "title": "山东省滨州市无棣县发布大风蓝色预警"
      },
      {
        "id": "53082541600000_20260204170251",
        "headline": "镇沅彝族哈尼族拉祜族自治县气象台发布森林火险橙色预警[Ⅱ级/严重]",
        "effective": "2026/02/04 17:04",
        "description": "镇沅县气象台、镇沅县应急管理局、镇沅县林业和草原局2026年2月4日17时00分联合升级发布森林火险气象Ⅱ级预警：预计未来3天内，镇沅县大部地区晴朗少雨、空气干燥，森林火险气象等级将达高危险级别，易出现森林火灾。请注意防范。",
        "longitude": 101.1085,
        "latitude": 24.0057,
        "type": "p0000002",
        "title": "云南省思茅市镇沅彝族哈尼族拉祜族自治县发布森林火险橙色预警"
      },
      {
        "id": "12000041600000_20260204170446",
        "headline": "天津市气象台发布寒潮蓝色预警/Ⅳ级/一般",
        "effective": "2026/02/04 17:04",
        "description": "天津市气象台于2026年02月04日17时06分发布寒潮蓝色预警信号：受强冷空气影响，预计5日至7日天津地区将出现寒潮天气，最低气温下降8℃左右，7日早晨中心城区最低气温降至-8℃，其他地区降至-9到-12℃。4日后半夜至5日白天有北到东北风4-5级阵风6-8级。请有关单位和人员做好防范准备。",
        "longitude": 117.2,
        "latitude": 39.1333,
        "type": "p0004004",
        "title": "天津市发布寒潮蓝色预警"
      },
      {
        "id": "13072641600000_20260204170435",
        "headline": "蔚县气象台发布大风蓝色预警[Ⅳ级/一般]",
        "effective": "2026/02/04 17:04",
        "description": "蔚县气象台2026年02月04日16时58分发布大风蓝色预警信号：预计今天傍晚到明天白天我县全部乡镇有5级左右西北风，阵风7～8级，局地可达9级，请注意防范。",
        "longitude": 114.5827,
        "latitude": 39.8372,
        "type": "p0007004",
        "title": "河北省张家口市蔚县发布大风蓝色预警"
      },
      {
        "id": "15252641600000_20260204170312",
        "headline": "西乌珠穆沁旗气象台发布大风蓝色预警[IV级/一般]",
        "effective": "2026/02/04 17:04",
        "description": "西乌珠穆沁旗气象台2026年02月04日16时58分发布大风蓝色预警信号：  24小时内西乌珠穆沁旗将受大风影响，平均风力可达6级以上，或者阵风7级以上，伴有吹雪。请有关单位和人员做好防范准备。",
        "longitude": 117.6152,
        "latitude": 44.5861,
        "type": "p0007004",
        "title": "内蒙古自治区锡林郭勒盟西乌珠穆沁旗发布大风蓝色预警"
      },
      {
        "id": "13073241600000_20260204170411",
        "headline": "赤城县气象台发布大风蓝色预警[Ⅳ级/一般]",
        "effective": "2026/02/04 17:04",
        "description": "赤城县气象台2026年02月04日17时03分发布大风蓝色预警信号：预计今天傍晚到明天白天我县全部乡镇有5级左右西北风，阵风7～8级，局地可达9级，请注意防范。",
        "longitude": 115.8327,
        "latitude": 40.9121,
        "type": "p0007004",
        "title": "河北省张家口市赤城县发布大风蓝色预警"
      },
      {
        "id": "13082141600000_20260204170342",
        "headline": "承德县气象台发布大风蓝色预警[Ⅳ级/一般]",
        "effective": "2026/02/04 17:03",
        "description": "承德县气象台2026年02月04日17时02分发布大风蓝色预警信号：预计今天夜间到明天白天，我县全部乡镇有西北风4～6级，阵风7～9级，部分乡镇可达10级。请注意防范。",
        "longitude": 118.1725,
        "latitude": 40.7686,
        "type": "p0007004",
        "title": "河北省承德市承德县发布大风蓝色预警"
      },
      {
        "id": "13073041600000_20260204170307",
        "headline": "怀来县气象台发布大风蓝色预警[Ⅳ级/一般]",
        "effective": "2026/02/04 17:03",
        "description": "怀来县气象台2026年02月04日17时01分发布大风蓝色预警信号：预计今天夜间到明天白天我县全部乡镇有5级左右西北风，阵风7～8级，局地可达9级，请注意防范。",
        "longitude": 115.5208,
        "latitude": 40.4054,
        "type": "p0007004",
        "title": "河北省张家口市怀来县发布大风蓝色预警"
      },
      {
        "id": "21068141600000_20260204170300",
        "headline": "东港市气象台发布寒潮橙色预警信号[II级/重大]",
        "effective": "2026/02/04 17:03",
        "description": "寒潮橙色预警信号：预计5日8时到6日8时，东港市最低气温将下降12℃到16℃，6日早晨最低气温将达到-17℃到-15℃。请按照职责做好防寒潮应急工作，注意防寒保暖，农业、水产业、畜牧业等要积极采取防霜冻、冰冻等防寒措施，做好防风工作。东港市气象台2026年02月04日17时03分发布",
        "longitude": 124.1494,
        "latitude": 39.8835,
        "type": "p0004002",
        "title": "辽宁省丹东市东港市发布寒潮橙色预警"
      },
      {
        "id": "13082641600000_20260204170233",
        "headline": "丰宁满族自治县气象台发布大风蓝色预警[Ⅳ级/一般]",
        "effective": "2026/02/04 17:02",
        "description": "丰宁满族自治县气象台2026年02月04日17时02分发布大风蓝色预警信号：预计今天夜间到明天白天，我县全部乡镇有西北风4～6级，阵风7～9级，局地可达10级。请注意防范。",
        "longitude": 116.6512,
        "latitude": 41.2099,
        "type": "p0007004",
        "title": "河北省承德市丰宁满族自治县发布大风蓝色预警"
      },
      {
        "id": "13098441600000_20260204170214",
        "headline": "河间市气象台发布大风蓝色预警[Ⅳ级/一般]",
        "effective": "2026/02/04 17:02",
        "description": "河间市气象台2026年02月04日17时00分发布大风蓝色预警信号：预计明天白天河间市全部乡镇将受大风天气影响，有东北风4~5级，阵风6~7级，平均气温下降6~8℃，7日早晨最低气温降至-11~-10℃，请注意防范。",
        "longitude": 116.0895,
        "latitude": 38.4415,
        "type": "p0007004",
        "title": "河北省沧州市河间市发布大风蓝色预警"
      },
      {
        "id": "13058141600000_20260204170206",
        "headline": "南宫市气象台发布大风蓝色预警[Ⅳ级/一般]",
        "effective": "2026/02/04 17:02",
        "description": "南宫市气象台2026年02月04日16时57分发布大风蓝色预警信号：预计5日白天，我市全部乡镇有东北风4～5级，阵风6～7级，请注意防范。",
        "longitude": 115.3981,
        "latitude": 37.3597,
        "type": "p0007004",
        "title": "河北省邢台市南宫市发布大风蓝色预警"
      },
      {
        "id": "13073141600000_20260204170203",
        "headline": "涿鹿县气象台发布大风蓝色预警[Ⅳ级/一般]",
        "effective": "2026/02/04 17:02",
        "description": "涿鹿县气象台2026年02月04日16时56分发布大风蓝色预警信号：预计今天傍晚到明天白天，我县所有乡镇有5级左右西北风，阵风7-8级，局地可达9级，请注意防范。",
        "longitude": 115.2192,
        "latitude": 40.3787,
        "type": "p0007004",
        "title": "河北省张家口市涿鹿县发布大风蓝色预警"
      },
      {
        "id": "13053041600000_20260204170136",
        "headline": "新河县气象台发布大风蓝色预警[Ⅳ级/一般]",
        "effective": "2026/02/04 17:01",
        "description": "新河县气象台2026年02月04日16时58分发布大风蓝色预警信号：预计5日白天，我县全部乡镇有东北风4～5级，阵风6～7级，请注意防范。",
        "longitude": 115.2475,
        "latitude": 37.5262,
        "type": "p0007004",
        "title": "河北省邢台市新河县发布大风蓝色预警"
      },
      {
        "id": "37078341600000_20260204170100",
        "headline": "寿光市气象台发布寒潮蓝色预警[IV级/一般]",
        "effective": "2026/02/04 17:01",
        "description": "寿光市气象台2026年02月04日17时01分发布寒潮蓝色预警信号：受较强冷空气影响，预计5-6日寿光市各镇街将出现寒潮天气，最低气温降幅6～8℃，7日早晨最低气温降至-8℃左右。另外，5日东北风风力较大，内陆地区5～6级阵风7～8级，北部海区6～7级阵风8～9级，6日风力逐渐减弱，内陆地区4～5级阵风6级，北部海区5～6级阵风7级。请注意防范。",
        "longitude": 118.7365,
        "latitude": 36.8744,
        "type": "p0004004",
        "title": "山东省潍坊市寿光市发布寒潮蓝色预警"
      },
      {
        "id": "23023041600000_20260204165816",
        "headline": "克东县气象台发布寒潮蓝色预警[IV级/一般]",
        "effective": "2026/02/04 17:00",
        "description": "克东县气象台2026年2月4日16时58分发布寒潮蓝色预警信号：预计未来48小时内克东县全部乡镇、街道最低气温将要下降8℃以上，请有关单位和个人注意做好预防工作。",
        "longitude": 126.2491,
        "latitude": 48.0373,
        "type": "p0004004",
        "title": "黑龙江省齐齐哈尔市克东县发布寒潮蓝色预警"
      },
      {
        "id": "13092541600000_20260204170033",
        "headline": "盐山县气象台发布大风蓝色预警[Ⅳ级/一般]",
        "effective": "2026/02/04 17:00",
        "description": "盐山县气象台2026年02月04日16时56分发布大风蓝色预警信号：预计明天白天盐山县全部乡镇将受大风天气影响，有东北风4~5级，阵风6~7级，请注意防范。",
        "longitude": 117.2298,
        "latitude": 38.0561,
        "type": "p0007004",
        "title": "河北省沧州市盐山县发布大风蓝色预警"
      },
      {
        "id": "13092341600000_20260204170026",
        "headline": "东光县气象台发布大风蓝色预警[Ⅳ级/一般]",
        "effective": "2026/02/04 17:00",
        "description": "东光县气象台2026年02月04日16时55分发布大风蓝色预警信号：预计明天白天东光县各镇将受大风天气影响，有东北风4~5级，阵风6~7级，平均气温下降6~8℃，7日早晨最低气温降至-11~-10℃，请注意防范。",
        "longitude": 116.5421,
        "latitude": 37.8866,
        "type": "p0007004",
        "title": "河北省沧州市东光县发布大风蓝色预警"
      },
      {
        "id": "13082541600000_20260204170011",
        "headline": "隆化县气象台发布寒潮蓝色预警[Ⅳ级/一般]",
        "effective": "2026/02/04 17:00",
        "description": "隆化县气象台2026年02月04日16时57分发布寒潮蓝色预警信号：受蒙古国东移南下的冷空气影响，预计未来48小时内，我县全部乡镇平均气温将下降10℃以上。请注意防范。",
        "longitude": 117.7363,
        "latitude": 41.3167,
        "type": "p0004004",
        "title": "河北省承德市隆化县发布寒潮蓝色预警"
      },
      {
        "id": "11011441600000_20260204170128",
        "headline": "昌平区气象台发布寒潮蓝色预警[IV/一般]",
        "effective": "2026/02/04 17:00",
        "description": "昌平区气象台04日17时00分发布寒潮蓝色预警，受强冷空气影响，预计5日至7日昌平区将出现寒潮天气，最低气温降幅8℃左右，5日至7日最低气温降至-10℃左右，请注意防范。",
        "longitude": 116.2359,
        "latitude": 40.2181,
        "type": "p0004004",
        "title": "北京市昌平区发布寒潮蓝色预警"
      },
      {
        "id": "11022841600000_20260204165843",
        "headline": "密云区气象台发布大风蓝色预警[IV/一般]",
        "effective": "2026/02/04 17:00",
        "description": "密云区气象台04日17时00分发布大风蓝色预警，预计，4日后半夜至5日白天，密云有4级左右偏北风，阵风7、8级，请注意防范。",
        "longitude": 116.8353,
        "latitude": 40.3756,
        "type": "p0007004",
        "title": "北京市密云区发布大风蓝色预警"
      },
      {
        "id": "21072641600000_20260204170000",
        "headline": "黑山县气象台发布寒潮蓝色预警信号[Ⅳ级/一般]",
        "effective": "2026/02/04 17:00",
        "description": "寒潮蓝色预警信号：预计4日夜间到6日，黑山县最低气温将下降10到12℃，7日早晨最低气温将降至-18℃左右。4日20时到6日20时，黑山县偏北风4到6级，阵风7到8级，请做好防寒、防风工作。黑山县气象台2026年02月04日17时00分发布",
        "longitude": 122.1179,
        "latitude": 41.6918,
        "type": "p0004004",
        "title": "辽宁省锦州市黑山县发布寒潮蓝色预警"
      },
      {
        "id": "11022841600000_20260204165951",
        "headline": "密云区气象台发布寒潮蓝色预警[IV/一般]",
        "effective": "2026/02/04 17:00",
        "description": "密云区气象台04日17时00分发布寒潮蓝色预警，受强冷空气影响，预计5日至7日密云将出现寒潮天气，最低气温将降至-14℃左右，降幅可达8℃以上，请注意防范。",
        "longitude": 116.8353,
        "latitude": 40.3756,
        "type": "p0004004",
        "title": "北京市密云区发布寒潮蓝色预警"
      },
      {
        "id": "37012441600000_20260204170024",
        "headline": "平阴县气象台发布寒潮蓝色预警信号[Ⅳ/一般]",
        "effective": "2026/02/04 17:00",
        "description": "平阴县气象台2026年02月04日17时00分发布寒潮蓝色预警信号：受较强冷空气影响，预计5日到7日，我县全部镇街将出现寒潮天气。气温明显下降，过程降温幅度8～12℃。6日最高气温0℃左右，7日早晨气温降至最低，最低气温-5℃左右。此外，5日至6日白天有平均风力4～5级阵风7～8级的偏北风。请注意防范。",
        "longitude": 116.4551,
        "latitude": 36.2869,
        "type": "p0004004",
        "title": "山东省济南市平阴县发布寒潮蓝色预警"
      },
      {
        "id": "11011641600000_20260204164438",
        "headline": "怀柔区气象台发布大风蓝色预警[IV/一般]",
        "effective": "2026/02/04 17:00",
        "description": "怀柔区气象台04日17时00分发布大风蓝色预警，预计4日后半夜至5日白天，怀柔区有4级左右偏北风，阵风7、8级，局地阵风可达9级以上，请注意防范。",
        "longitude": 116.6371,
        "latitude": 40.3243,
        "type": "p0007004",
        "title": "北京市怀柔区发布大风蓝色预警"
      },
      {
        "id": "11011641600000_20260204164937",
        "headline": "怀柔区气象台发布寒潮蓝色预警[IV/一般]",
        "effective": "2026/02/04 17:00",
        "description": "怀柔区气象台04日17时00分发布寒潮蓝色预警，受强冷空气影响，预计5日至7日怀柔区将出现寒潮天气，最低气温将从-3℃降至-12℃左右，降幅在8℃左右，请注意防范。",
        "longitude": 116.6371,
        "latitude": 40.3243,
        "type": "p0004004",
        "title": "北京市怀柔区发布寒潮蓝色预警"
      },
      {
        "id": "21029941600000_20260204170000",
        "headline": "长兴岛经济技术开发区气象台发布寒潮黄色预警信号[III级/较大]",
        "effective": "2026/02/04 17:00",
        "description": "寒潮黄色预警信号：预计4日20时到6日8时，长兴岛街道和交流岛街道气温将明显下降，降温幅度12℃左右，6日8时前后气温降至最低，最低温度降至-13℃左右。并伴有大风天气，5日5时至6日8时偏北风风力较大，阵风最大可达8～10级。请相关部门做好防寒潮工作。请广大市民注意防风保暖，对各类作物积极采取防冻措施。长兴岛经济技术开发区气象台2026年02月04日17时00分发布",
        "longitude": "",
        "latitude": "",
        "type": "p0004003",
        "title": "发布寒潮黄色预警"
      },
      {
        "id": "21020041600000_20260204170000",
        "headline": "大连市气象台发布大雾橙色预警信号[II级/重大]",
        "effective": "2026/02/04 17:00",
        "description": "大雾橙色预警信号：预计4日18时到5日10时，大连市中山区、西岗区、沙河口区、甘井子区、高新区将出现能见度小于200米的浓雾天气，请相关部门做好防雾工作，请广大市民减少户外活动，出行和进行户外活动时注意安全。大连市气象台2026年02月04日17时00分发布",
        "longitude": 121.6082,
        "latitude": 38.9133,
        "type": "p0005002",
        "title": "辽宁省大连市发布大雾橙色预警"
      },
      {
        "id": "13070841600000_20260204165954",
        "headline": "万全区气象台发布大风蓝色预警[Ⅳ级/一般]",
        "effective": "2026/02/04 16:59",
        "description": "万全区气象台2026年02月04日16时57分发布大风蓝色预警信号：预计今天傍晚到明天白天全部乡镇有5级左右西北风，阵风7～8级，局地可达9级，请注意防范。",
        "longitude": "",
        "latitude": "",
        "type": "p0007004",
        "title": "发布大风蓝色预警"
      },
      {
        "id": "13092741600000_20260204165947",
        "headline": "南皮县气象台发布大风蓝色预警[Ⅳ级/一般]",
        "effective": "2026/02/04 16:59",
        "description": "南皮县气象台2026年02月04日16时50分发布大风蓝色预警信号：预计明天白天南皮县全部乡镇将受大风天气影响，有东北风4~5级，阵风6~7级，平均气温下降6~8℃，7日早晨最低气温降至-11~-10℃，请注意防范。",
        "longitude": 116.7092,
        "latitude": 38.0424,
        "type": "p0007004",
        "title": "河北省沧州市南皮县发布大风蓝色预警"
      },
      {
        "id": "13082241600000_20260204165941",
        "headline": "兴隆县气象台发布大风蓝色预警[Ⅳ级/一般]",
        "effective": "2026/02/04 16:59",
        "description": "兴隆县气象台2026年02月04日16时57分发布大风蓝色预警信号：预计今天夜间到明天白天，我县全部乡镇有西北风4～6级，阵风7～9级，局地可达10级，请注意防范。",
        "longitude": 117.5071,
        "latitude": 40.4185,
        "type": "p0007004",
        "title": "河北省承德市兴隆县发布大风蓝色预警"
      },
      {
        "id": "51182441600000_20260204165915",
        "headline": "石棉县气象台更新大风黄色预警信号[III级/较重]",
        "effective": "2026/02/04 16:59",
        "description": "石棉县气象台2026年02月04日16时59分更新大风蓝色预警信号为大风黄色预警信号：预计我县美罗镇12小时内将受大风影响,平均风力可达8级以上或者阵风9级以上。预计我县栗子坪乡、王岗坪彝族藏族乡、新民乡、丰乐乡、迎政乡、回隆镇、永和乡、新棉街道等乡镇（街道）12小时内将受大风影响,平均风力可达6级以上或者阵风7级以上。请政府及有关部门做好防御大风的准备工作，切断户外危险电源，妥善安置易受大风影响的室外物品，遮盖建筑物资；人员外出注意行路、行车安全，刮风时不要在广告牌、临时搭建物等下面逗留；停止露天活动和高空等户外危险作业。",
        "longitude": 102.3596,
        "latitude": 29.2341,
        "type": "p0007003",
        "title": "四川省雅安市石棉县发布大风黄色预警"
      },
      {
        "id": "13088141600000_20260204165814",
        "headline": "平泉市气象台发布寒潮蓝色预警[Ⅳ级/一般]",
        "effective": "2026/02/04 16:58",
        "description": "平泉市气象台2026年02月04日16时56分发布寒潮蓝色预警信号：受蒙古国东移南下的冷空气影响，预计未来48小时内，我市全部乡镇平均气温将下降10℃以上。请注意防范。",
        "longitude": "",
        "latitude": "",
        "type": "p0004004",
        "title": "发布寒潮蓝色预警"
      },
      {
        "id": "13092841600000_20260204165752",
        "headline": "吴桥县气象台发布大风蓝色预警[Ⅳ级/一般]",
        "effective": "2026/02/04 16:57",
        "description": "吴桥县气象台2026年02月04日16时52分发布大风蓝色预警信号：预计明天白天吴桥县各乡镇将受大风天气影响，有东北风4～5级，阵风6～7级，平均气温下降6～8℃，7日早晨最低气温降至-11～-10℃，请注意防范。",
        "longitude": 116.3915,
        "latitude": 37.6282,
        "type": "p0007004",
        "title": "河北省沧州市吴桥县发布大风蓝色预警"
      },
      {
        "id": "13092641600000_20260204165752",
        "headline": "肃宁县气象台发布大风蓝色预警[Ⅳ级/一般]",
        "effective": "2026/02/04 16:57",
        "description": "肃宁县气象台2026年02月04日16时54分发布大风蓝色预警信号：预计明天白天肃宁县全部乡镇将受大风天气影响，有东北风4~5级，阵风6~7级，请注意防范。",
        "longitude": 115.8359,
        "latitude": 38.4271,
        "type": "p0007004",
        "title": "河北省沧州市肃宁县发布大风蓝色预警"
      },
      {
        "id": "13092941600000_20260204165720",
        "headline": "献县气象台发布大风蓝色预警[Ⅳ级/一般]",
        "effective": "2026/02/04 16:57",
        "description": "献县气象台2026年02月04日16时56分发布大风蓝色预警信号：预计明天白天献县全部乡镇将受大风天气影响，有东北风4~5级，阵风6~7级，平均气温下降6~8℃，7日早晨最低气温降至-11~-10℃，请注意防范。",
        "longitude": 116.1238,
        "latitude": 38.1897,
        "type": "p0007004",
        "title": "河北省沧州市献县发布大风蓝色预警"
      },
      {
        "id": "21020041600000_20260204165600",
        "headline": "大连市气象台发布大风黄色预警信号[III级/较大]",
        "effective": "2026/02/04 16:56",
        "description": "大风黄色预警信号：预计5日8时到20时，大连市中山区、西岗区、沙河口区、甘井子区、高新区偏北风5到6级、阵风7到9级，请相关部门做好防大风工作，谨防高空坠物、注意出行及作业安全。大连市气象台2026年02月04日16时56分发布",
        "longitude": 121.6082,
        "latitude": 38.9133,
        "type": "p0007003",
        "title": "辽宁省大连市发布大风黄色预警"
      },
      {
        "id": "13092241600000_20260204165550",
        "headline": "青县气象台发布大风蓝色预警[Ⅳ级/一般]",
        "effective": "2026/02/04 16:55",
        "description": "青县气象台2026年02月04日16时54分发布大风蓝色预警信号：预计明天白天青县全部乡镇将受大风天气影响，有东北风4~5级，阵风6~7级，平均气温下降6~8℃，7日早晨最低气温降至-11~-10℃，请注意防范。",
        "longitude": 116.8384,
        "latitude": 38.5696,
        "type": "p0007004",
        "title": "河北省沧州市青县发布大风蓝色预警"
      },
      {
        "id": "32030041600000_20260204165614",
        "headline": "徐州市气象台发布寒潮蓝色预警[Ⅳ级/一般]",
        "effective": "2026/02/04 16:55",
        "description": "徐州市气象台2026年02月04日16时52分发布寒潮蓝色预警信号：受强冷空气影响，预计5-7日鼓楼、云龙、泉山、经开、港务、铜山、贾汪、丰县、沛县、邳州、新沂、睢宁等地区的大部分镇（街道）48小时最低气温将下降7～9℃，并伴有陆上6到7级、河湖水面7到8级的东北风。7-8日早晨最低气温-6℃左右，有严重冰冻。市应急局、气象局联合提醒加强防范。",
        "longitude": 117.1903,
        "latitude": 34.2722,
        "type": "p0004004",
        "title": "江苏省徐州市发布寒潮蓝色预警"
      },
      {
        "id": "11010141600000_20260204165603",
        "headline": "东城区气象台发布寒潮蓝色预警[IV/一般]",
        "effective": "2026/02/04 16:55",
        "description": "东城区气象台04日16时55分发布寒潮蓝色预警，受强冷空气影响，预计5日至7日东城区将出现寒潮天气，最低气温降幅8℃以上，5日至7日最低气温降至-9℃左右，请注意防范。",
        "longitude": 116.4188,
        "latitude": 39.9175,
        "type": "p0004004",
        "title": "北京市东城区发布寒潮蓝色预警"
      },
      {
        "id": "21078141600000_20260204165500",
        "headline": "凌海市气象台发布寒潮蓝色预警信号[Ⅳ级/一般]",
        "effective": "2026/02/04 16:55",
        "description": "寒潮蓝色预警信号：预计4日夜间到6日，凌海市最低气温将下降10到12℃，7日早晨最低气温将降至-16℃。4日20时到6日20时，凌海市偏北风4到6级，阵风7到8级，渤海北部海域偏北风5到6级，阵风7到9级，请注意做好防风保暖工作。凌海市气象台2026年02月04日16时55分发布",
        "longitude": 121.3642,
        "latitude": 41.1717,
        "type": "p0004004",
        "title": "辽宁省锦州市凌海市发布寒潮蓝色预警"
      },
      {
        "id": "13082541600000_20260204165450",
        "headline": "隆化县气象台发布大风蓝色预警[Ⅳ级/一般]",
        "effective": "2026/02/04 16:54",
        "description": "隆化县气象台2026年02月04日16时52分发布大风蓝色预警信号：预计今天夜间到明天白天，我县全部乡镇有西北风4～6级，阵风7～9级，局地可达10级。请注意防范。",
        "longitude": 117.7363,
        "latitude": 41.3167,
        "type": "p0007004",
        "title": "河北省承德市隆化县发布大风蓝色预警"
      },
      {
        "id": "23060041600000_20260204164207",
        "headline": "大庆市气象台发布道路冰雪黄色预警[III级/较重]",
        "effective": "2026/02/04 16:54",
        "description": "大庆市气象台2026年2月4日16时45分发布道路冰雪黄色预警信号：预计4日夜间至5日白天，我市自西向东有降雪天气，将出现道路结冰或积雪，对交通有一定影响，请有关单位和个人注意做好预防工作。 \n \n\n\n\n防御指南：\n1.交通、公安等部门要按照职责做好道路结冰或积雪的应对准备工作；\n2.驾驶人员应当注意路况，安全行驶；\n3.行人外出尽量少骑自行车，注意防滑。",
        "longitude": 125.0747,
        "latitude": 46.5968,
        "type": "p0000003",
        "title": "黑龙江省大庆市发布道路冰雪黄色预警"
      },
      {
        "id": "13092141600000_20260204165420",
        "headline": "沧县气象台发布大风蓝色预警[Ⅳ级/一般]",
        "effective": "2026/02/04 16:54",
        "description": "沧县气象台2026年02月04日16时52分发布大风蓝色预警信号：预计明天白天沧县全部乡镇将受大风天气影响，有东北风4~5级，阵风6~7级，平均气温下降6~8℃，7日早晨最低气温降至-11~-10℃，请注意防范。",
        "longitude": 117.0075,
        "latitude": 38.2199,
        "type": "p0007004",
        "title": "河北省沧州市沧县发布大风蓝色预警"
      },
      {
        "id": "21078241600000_20260204165400",
        "headline": "北镇市气象台发布寒潮蓝色预警信号[Ⅳ级/一般]",
        "effective": "2026/02/04 16:54",
        "description": "寒潮蓝色预警信号：预计4日夜间到6日，北镇市最低气温将下降10到12℃，7日早晨最低气温将降至-17℃。4日20时到6日20时，北镇市偏北风4到6级，阵风7到8级，请做好防寒、防风工作。北镇市气象台2026年02月04日16时54分发布",
        "longitude": 121.796,
        "latitude": 41.5988,
        "type": "p0004004",
        "title": "辽宁省锦州市北镇市发布寒潮蓝色预警"
      },
      {
        "id": "37160041600000_20260204165330",
        "headline": "滨州市气象台发布大风蓝色预警信号[Ⅳ级/一般]",
        "effective": "2026/02/04 16:53",
        "description": "滨州市气象台2026年02月04日16时40分发布滨城区、高新区、经开区和北海新区大风蓝色预警信号。受较强冷空气影响，预计5日早晨到6日上午滨城区、高新区、经开区和北海新区全部乡镇（街道）东北风风力较大，内陆地区4～5级阵风7级转3～4级阵风6级，北部沿海及海面5～6级阵风7～8级。请注意防范。",
        "longitude": 118.0113,
        "latitude": 37.3758,
        "type": "p0007004",
        "title": "山东省滨州市发布大风蓝色预警"
      },
      {
        "id": "65420041600000_20260204165319",
        "headline": "塔城地区气象台发布大风黄色预警[III级/较重]",
        "effective": "2026/02/04 16:53",
        "description": "塔城地区气象台2026年2月4日16时53分发布大风黄色预警信号：预计5日白天至6日夜间，塔城地区塔城市、额敏县、裕民县、托里县的部分乡镇及兵团第九师162团、163团、团结农场等地有7到8级偏东风，玛依塔斯至老风口风区一线风力9到10级，阵风11到12级，需提前做好各项防范工作。",
        "longitude": 82.9805,
        "latitude": 46.7486,
        "type": "p0007003",
        "title": "新疆维吾尔自治区塔城地区发布大风黄色预警"
      },
      {
        "id": "13070041600000_20260204165258",
        "headline": "张家口市气象台发布大风蓝色预警[Ⅳ级/一般]",
        "effective": "2026/02/04 16:52",
        "description": "张家口市气象台2026年02月04日16时50分发布大风蓝色预警信号：预计今天傍晚到明天白天全市有5级左右西北风，阵风7～8级，局地可达9级，请注意防范。",
        "longitude": 114.8815,
        "latitude": 40.8124,
        "type": "p0007004",
        "title": "河北省张家口市发布大风蓝色预警"
      },
      {
        "id": "23038241600000_20260204165028",
        "headline": "密山市气象台发布道路冰雪黄色预警[III级/较重]",
        "effective": "2026/02/04 16:52",
        "description": "密山市气象台2026年2月4日16时30分发布道路冰雪黄色预警信号：预计未来24小时，我市受降雪天气影响，将出现对交通有一定影响的道路结冰或积雪，请有关单位和个人注意做好预防工作。",
        "longitude": 131.8741,
        "latitude": 45.5473,
        "type": "p0000003",
        "title": "黑龙江省鸡西市密山市发布道路冰雪黄色预警"
      },
      {
        "id": "21072741600000_20260204165200",
        "headline": "义县气象台发布寒潮蓝色预警信号[Ⅳ级/一般]",
        "effective": "2026/02/04 16:52",
        "description": "寒潮蓝色预警信号：预计4日夜间到6日，义县气温将下降10到12℃，7日早晨最低气温将降至-17℃,4日20时到6日20时，义县偏北风4到6级，阵风7到8级，请做好防寒、防风工作。义县气象台2026年02月04日16时52分发布",
        "longitude": 121.2428,
        "latitude": 41.5372,
        "type": "p0004004",
        "title": "辽宁省锦州市义县发布寒潮蓝色预警"
      },
      {
        "id": "21021341600000_20260204165200",
        "headline": "金普新区气象台发布寒潮黄色预警信号[III级/较大]",
        "effective": "2026/02/04 16:52",
        "description": "寒潮黄色预警信号：预计4日20时到6日8时，金普新区气温将明显下降，降温幅度12℃左右，6日8时前后气温降至最低，南部街道最低温度降至-13℃左右，北部街道最低温度降至-16℃左右。并伴有大风天气，5日8时至6日8时偏北风风力较大，近海、沿岸地区阵风最大可达8～10级，内陆阵风最大可达7～9级。请相关部门做好防寒潮工作。请广大市民注意防风保暖，对各类作物积极采取防冻措施。金普新区气象台2026年02月04日16时52分发布",
        "longitude": 121.7894,
        "latitude": 39.0527,
        "type": "p0004003",
        "title": "辽宁省大连市金州区发布寒潮黄色预警"
      },
      {
        "id": "11010241600000_20260204165354",
        "headline": "西城区气象台发布寒潮蓝色预警[IV/一般]",
        "effective": "2026/02/04 16:52",
        "description": "西城区气象台04日16时52分发布寒潮蓝色预警，受强冷空气影响，预计5日至7日西城区将出现寒潮天气，最低气温降幅8℃以上，5日至7日最低气温降至-9℃左右，请注意防范。",
        "longitude": 116.3668,
        "latitude": 39.9153,
        "type": "p0004004",
        "title": "北京市西城区发布寒潮蓝色预警"
      },
      {
        "id": "65430041600000_20260204165153",
        "headline": "阿勒泰地区气象台发布大风黄色预警[III级/较重]",
        "effective": "2026/02/04 16:51",
        "description": "阿勒泰地区气象台2026年2月4日16时51分发布大风黄色预警信号：预计2月5日23时～7日03时，哈巴河县、吉木乃县大部，布尔津县冲乎尔镇以南区域，富蕴县克孜勒希力克乡，青河县萨尔托海乡有8～9级偏东风；哈巴河县龙源风电场、齐德哈仁、额尔齐斯河沿线风力可达10级；哈巴河县齐巴尔镇，吉木乃县闹海风区（哈土山—恰勒什海乡—达冷海齐、土满德片区），布尔津县江阿吾孜风力可达11级。上述区域将出现不同程度的风吹雪，请注意加强防范。",
        "longitude": 88.1341,
        "latitude": 47.8483,
        "type": "p0007003",
        "title": "新疆维吾尔自治区阿勒泰地区发布大风黄色预警"
      },
      {
        "id": "23122241600000_20260204164954",
        "headline": "兰西县气象台发布道路冰雪黄色预警[III级/较重]",
        "effective": "2026/02/04 16:51",
        "description": "兰西县气象台2026年02月04日16时50分发布道路冰雪黄色预警信号：受降雪天气影响，预计未来24小时我县将出现道路结冰或积雪，将对交通产生影响，请有关单位和个人提前做好防范工作。",
        "longitude": 126.2893,
        "latitude": 46.259,
        "type": "p0000003",
        "title": "黑龙江省绥化市兰西县发布道路冰雪黄色预警"
      },
      {
        "id": "13088141600000_20260204165108",
        "headline": "平泉市气象台发布大风蓝色预警[Ⅳ级/一般]",
        "effective": "2026/02/04 16:51",
        "description": "平泉市气象台2026年02月04日16时50分发布大风蓝色预警信号：预计今天夜间到明天白天，我市全部乡镇有西北风4～6级，阵风7～9级，局地可达10级。请注意防范。",
        "longitude": "",
        "latitude": "",
        "type": "p0007004",
        "title": "发布大风蓝色预警"
      },
      {
        "id": "37012541600000_20260204165207",
        "headline": "济阳区气象台发布寒潮蓝色预警信号[Ⅳ/一般]",
        "effective": "2026/02/04 16:51",
        "description": "济阳区气象台2026年02月04日16时51分发布寒潮蓝色预警信号：受较强冷空气影响，预计5日至7日我区全部镇街将出现寒潮天气。气温持续下降，降温幅度8℃左右。5日白天最高气温降至7℃左右，6日白天最高气温-2℃左右；7日早晨最低气温降至-8℃左右。5日至6日北风4～5级阵风7～8级。请注意防范！",
        "longitude": 117.2106,
        "latitude": 36.9768,
        "type": "p0004004",
        "title": "山东省济南市济阳县发布寒潮蓝色预警"
      },
      {
        "id": "11010141600000_20260204165054",
        "headline": "东城区气象台发布大风蓝色预警[IV/一般]",
        "effective": "2026/02/04 16:50",
        "description": "东城区气象台04日16时50分发布大风蓝色预警，预计4日后半夜至5日白天，东城区有4级左右偏北风，阵风7、8级，请注意防范。",
        "longitude": 116.4188,
        "latitude": 39.9175,
        "type": "p0007004",
        "title": "北京市东城区发布大风蓝色预警"
      },
      {
        "id": "11010241600000_20260204164922",
        "headline": "西城区气象台发布大风蓝色预警[IV/一般]",
        "effective": "2026/02/04 16:49",
        "description": "西城区气象台04日16时49分发布大风蓝色预警，预计4日后半夜至5日白天，西城区有4级左右偏北风，阵风7、8级，请注意防范。",
        "longitude": 116.3668,
        "latitude": 39.9153,
        "type": "p0007004",
        "title": "北京市西城区发布大风蓝色预警"
      },
      {
        "id": "21140241600000_20260204164900",
        "headline": "葫芦岛市连山区气象台发布寒潮蓝色预警信号[Ⅳ级/一般]",
        "effective": "2026/02/04 16:49",
        "description": "寒潮蓝色预警信号：预计4日夜间到6日，连山区最低气温将下降8℃到11℃，7日早晨最低气温零下19℃；预计4日20时到6日20时渤海北部海域偏北风5到6级、阵风7到9级，4日20时到6日08时连山区偏北风5到6级、阵风7到9级，请注意添衣保暖，防范降温和大风对农业、畜牧业等带来的不利影响。葫芦岛市连山区气象台2026年02月04日16时49分发布",
        "longitude": 120.8594,
        "latitude": 40.7551,
        "type": "p0004004",
        "title": "辽宁省葫芦岛市连山区发布寒潮蓝色预警"
      },
      {
        "id": "21110441600000_20260204164900",
        "headline": "盘锦市大洼区气象台发布大风黄色预警信号[III级/较大]",
        "effective": "2026/02/04 16:49",
        "description": "大风黄色预警信号：预计5日5时到8时，渤海北部海域偏北风6级，阵风7到8级；5日8时到20时，偏北风6到7级，阵风8到9级，大洼附近海域和航线将受影响。5日8时到20时，大洼区偏北风5到6级，阵风7到8级，局部9级。请停止露天活动和高空等户外危险作业，请相关水域水上作业和过往船舶采取积极的应对措施。盘锦市大洼区气象台2026年02月04日16时49分发布",
        "longitude": "",
        "latitude": "",
        "type": "p0007003",
        "title": "发布大风黄色预警"
      },
      {
        "id": "21022441600000_20260204164800",
        "headline": "长海县气象台发布寒潮黄色预警信号[III级/较大]",
        "effective": "2026/02/04 16:48",
        "description": "寒潮黄色预警信号：预计4日20时到6日8时，长海县各镇气温将明显下降，降温幅度12℃左右，6日8时前后气温降至最低，最低温度降至-13℃左右。并伴有大风天气，5日5时至6日8时偏北风风力较大，阵风最大可达8～9级。请相关部门做好防寒潮工作。广大居民注意防风保暖，对各类作物积极采取防冻措施。长海县气象台2026年02月04日16时48分发布",
        "longitude": 122.5878,
        "latitude": 39.2724,
        "type": "p0004003",
        "title": "辽宁省大连市长海县发布寒潮黄色预警"
      },
      {
        "id": "13090041600000_20260204164753",
        "headline": "沧州市气象台发布大风蓝色预警[Ⅳ级/一般]",
        "effective": "2026/02/04 16:47",
        "description": "沧州市气象台2026年02月04日16时33分发布大风蓝色预警信号：预计明天白天沧州市全区将受大风天气影响，内陆地区有东北风4~5级，阵风6~7级，沿岸海域及沿海地区有东北风5~6级，阵风7~8级，平均气温下降6~8℃，7日早晨最低气温降至-11~-10℃，请注意防范。",
        "longitude": 116.8653,
        "latitude": 38.3058,
        "type": "p0007004",
        "title": "河北省沧州市发布大风蓝色预警"
      },
      {
        "id": "23038241600000_20260204164545",
        "headline": "密山市气象台发布寒潮蓝色预警[IV级/一般]",
        "effective": "2026/02/04 16:47",
        "description": "密山市气象台2026年2月4日16时25分发布寒潮蓝色预警信号：受冷空气影响，预计4日夜间至6日夜间，我市最低气温将下降8℃以上，最低气温可达-25℃左右，请有关单位和个人注意做好预防工作。",
        "longitude": 131.8741,
        "latitude": 45.5473,
        "type": "p0004004",
        "title": "黑龙江省鸡西市密山市发布寒潮蓝色预警"
      },
      {
        "id": "21112241600000_20260204164700",
        "headline": "盘山县气象台发布大风黄色预警信号[III级/较大]",
        "effective": "2026/02/04 16:47",
        "description": "大风黄色预警信号：预计5日5时到8时，渤海北部海域偏北风6级，阵风7到8级；5日8时到20时，偏北风6到7级，阵风8到9级。5日8时到20时，盘山县偏北风5到6级，阵风7到8级，局部9级。请相关部门按照职责做好防大风工作，妥善安置易受大风影响的室外物品，遮盖建筑物资；请相关水域水上作业船舶采取积极的应对措施，加固港口设施，防止船舶走锚、搁浅和碰撞。盘山县气象台2026年02月04日16时47分发布",
        "longitude": 121.9853,
        "latitude": 41.2407,
        "type": "p0007003",
        "title": "辽宁省盘锦市盘山县发布大风黄色预警"
      },
      {
        "id": "23102541600000_20260204164402",
        "headline": "林口县气象台发布寒潮蓝色预警[IV级/一般]",
        "effective": "2026/02/04 16:46",
        "description": "林口县气象台2026年2月4日16时40分发布寒潮蓝色预警信号：受冷空气影响，预计未来48小时，我县最低气温将要下降8℃以上，最低气温降至-25℃左右，请有关单位和个人注意做好预防工作。",
        "longitude": 130.2684,
        "latitude": 45.2866,
        "type": "p0004004",
        "title": "黑龙江省牡丹江市林口县发布寒潮蓝色预警"
      },
      {
        "id": "13062441600000_20260204164649",
        "headline": "阜平县气象台发布寒潮蓝色预警[Ⅳ级/一般]",
        "effective": "2026/02/04 16:46",
        "description": "阜平县气象台2026年02月04日16时46分发布寒潮蓝色预警信号：受冷空气影响，预计5-7日，我县全部乡镇有寒潮天气，最低气温持续下降10~12℃。6-7日早晨最低气温降至-13~-10℃，请注意防范。",
        "longitude": 114.1988,
        "latitude": 38.8473,
        "type": "p0004004",
        "title": "河北省保定市阜平县发布寒潮蓝色预警"
      },
      {
        "id": "13042341600000_20260204164644",
        "headline": "临漳县气象台发布大风蓝色预警[Ⅳ级/一般]",
        "effective": "2026/02/04 16:46",
        "description": "临漳县气象台2026年02月04日16时43分发布大风蓝色预警信号：预计明天白天我县全部乡镇将受大风天气影响，平均风力4～6级，阵风风力可达7级，请注意防范。",
        "longitude": 114.6107,
        "latitude": 36.3376,
        "type": "p0007004",
        "title": "河北省邯郸市临漳县发布大风蓝色预警"
      },
      {
        "id": "21029941600000_20260204164600",
        "headline": "长兴岛经济技术开发区气象台发布大雾红色预警信号[I级/特别重大]",
        "effective": "2026/02/04 16:46",
        "description": "大雾红色预警信号：预计4日16时到5日8时，长兴岛街道将出现能见度小于50米的强浓雾天气，请相关部门做好防雾工作，请相关部门做好防雾应急工作。广大市民避免户外活动，出行和进行户外活动时注意安全。长兴岛经济技术开发区气象台2026年02月04日16时46分发布",
        "longitude": "",
        "latitude": "",
        "type": "p0005001",
        "title": "发布大雾红色预警"
      },
      {
        "id": "13080041600000_20260204164510",
        "headline": "承德市气象台发布寒潮蓝色预警[Ⅳ级/一般]",
        "effective": "2026/02/04 16:45",
        "description": "承德市气象台2026年02月04日16时44分发布寒潮蓝色预警信号：受蒙古国东移南下的冷空气影响，预计未来48小时内，我市大部分县（市、区）平均气温将下降10℃以上。请注意防范。",
        "longitude": 117.9301,
        "latitude": 40.9709,
        "type": "p0004004",
        "title": "河北省承德市发布寒潮蓝色预警"
      },
      {
        "id": "11010941600000_20260204163747",
        "headline": "门头沟区气象台发布寒潮蓝色预警[IV/一般]",
        "effective": "2026/02/04 16:45",
        "description": "门头沟区气象台04日16时45分发布寒潮蓝色预警，受强冷空气影响，预计5日至7日门头沟区将出现寒潮天气，最低气温降幅9℃左右，5日至7日最低气温降至-9℃左右，请注意防范。",
        "longitude": 116.1054,
        "latitude": 39.9372,
        "type": "p0004004",
        "title": "北京市门头沟区发布寒潮蓝色预警"
      },
      {
        "id": "53232741600000_20260204164657",
        "headline": "永仁县气象台发布大风蓝色预警[Ⅳ级/一般]",
        "effective": "2026/02/04 16:44",
        "description": "永仁县气象台2026年2月4日16时40分发布大风蓝色预警信号：未来12小时，永仁县中和镇、宜就镇、猛虎乡、永定镇、莲池乡、维的乡、永兴乡等乡镇将出现8级以上大风，请注意防范。",
        "longitude": 101.6712,
        "latitude": 26.0563,
        "type": "p0007004",
        "title": "云南省楚雄彝族自治州永仁县发布大风蓝色预警"
      },
      {
        "id": "37032341600000_20260204164400",
        "headline": "沂源县气象台发布寒潮蓝色预警[IV级/一般]",
        "effective": "2026/02/04 16:44",
        "description": "沂源县气象台2026年02月04日16时44分发布寒潮蓝色预警信号：受冷空气影响，预计5—7日，我县全部镇和街道将出现寒潮天气，最低气温降温幅度7～9℃，7日早晨最低气温降至-10～-7℃，局部低于-12℃。另外，5日有平均风力4～5级阵风7～8级的偏北大风。请注意防范。",
        "longitude": 118.1662,
        "latitude": 36.1863,
        "type": "p0004004",
        "title": "山东省淄博市沂源县发布寒潮蓝色预警"
      },
      {
        "id": "21110041600000_20260204164400",
        "headline": "盘锦市气象台发布大风黄色预警信号[III级/较大]",
        "effective": "2026/02/04 16:44",
        "description": "大风黄色预警信号：预计5日5时到8时，渤海北部海域偏北风6级，阵风7到8级；5日8时到20时，偏北风6到7级，阵风8到9级，盘锦附近海域和航线将受影响。5日8时到20时，盘锦市兴隆台区、双台子区偏北风5到6级，阵风7到8级，局部9级。请相关部门按照职责做好防大风工作，妥善安置易受大风影响的室外物品，遮盖建筑物资；请相关水域水上作业和过往船舶采取积极的应对措施，加固港口设施，防止船舶走锚、搁浅和碰撞。盘锦市气象台2026年02月04日16时44分发布",
        "longitude": 122.0653,
        "latitude": 41.1196,
        "type": "p0007003",
        "title": "辽宁省盘锦市发布大风黄色预警"
      },
      {
        "id": "13080041600000_20260204164324",
        "headline": "承德市气象台发布大风蓝色预警[Ⅳ级/一般]",
        "effective": "2026/02/04 16:43",
        "description": "承德市气象台2026年02月04日16时42分发布大风蓝色预警信号：预计今天夜间到明天白天，我市大部分地区有西北风4～6级，阵风7～9级，局地可达10级。请注意防范。",
        "longitude": 117.9301,
        "latitude": 40.9709,
        "type": "p0007004",
        "title": "河北省承德市发布大风蓝色预警"
      },
      {
        "id": "37012641600000_20260204164343",
        "headline": "商河县气象台发布寒潮蓝色预警信号[Ⅳ/一般]",
        "effective": "2026/02/04 16:42",
        "description": "商河县气象台2026年02月04日16时42分发布寒潮蓝色预警信号：受较强冷空气影响，预计5日到7日我县全部镇街将出现寒潮天气。气温明显下降，7日早晨最低气温降至-8°C左右。此外，5日至6日白天有平均风力4~5级阵风7~8级的偏北风。请注意防范！",
        "longitude": 117.1564,
        "latitude": 37.3105,
        "type": "p0004004",
        "title": "山东省济南市商河县发布寒潮蓝色预警"
      },
      {
        "id": "21070041600000_20260204164200",
        "headline": "锦州市气象台发布寒潮蓝色预警信号[Ⅳ级/一般]",
        "effective": "2026/02/04 16:42",
        "description": "寒潮蓝色预警信号：预计4日夜间到6日，锦州市区最低气温将下降10到12℃，7日早晨最低气温将降至-16℃。4日20时到6日20时，锦州市区偏北风4到6级，阵风7到8级，渤海北部海域偏北风5到6级，阵风7到9级，请注意做好防风保暖工作。锦州市气象台2026年02月04日16时42分发布",
        "longitude": 121.1276,
        "latitude": 41.0933,
        "type": "p0004004",
        "title": "辽宁省锦州市发布寒潮蓝色预警"
      },
      {
        "id": "23128341600000_20260204163718",
        "headline": "海伦市气象台发布道路冰雪黄色预警[III级/较重]",
        "effective": "2026/02/04 16:40",
        "description": "海伦市气象台2026年02月04日16时35分发布道路冰雪黄色预警信号:受降雪天气影响，预计未来24小时我市将出现道路结冰或积雪，部分地区能见度较差，对交通有一定影响，请有关单位和个人做好防范工作。",
        "longitude": 126.9694,
        "latitude": 47.4604,
        "type": "p0000003",
        "title": "黑龙江省绥化市海伦市发布道路冰雪黄色预警"
      },
      {
        "id": "21020041600000_20260204164000",
        "headline": "大连市气象台发布寒潮黄色预警信号[III级/较大]",
        "effective": "2026/02/04 16:40",
        "description": "寒潮黄色预警信号：预计4日20时到6日8时，大连市中山区、西岗区、沙河口区、甘井子区、高新区气温将明显下降，降温幅度12℃左右，6日8时前后气温降至最低，最低温度降至-13℃左右。并伴有大风天气，5日8时至6日8时偏北风风力较大，大连近海、沿岸地区阵风最大可达8～10级，内陆阵风最大可达7～9级。请相关部门做好防寒潮工作。请广大市民注意防风保暖，对各类作物积极采取防冻措施。大连市气象台2026年02月04日16时40分发布",
        "longitude": 121.6082,
        "latitude": 38.9133,
        "type": "p0004003",
        "title": "辽宁省大连市发布寒潮黄色预警"
      },
      {
        "id": "11022941600000_20260204164000",
        "headline": "延庆区气象台发布寒潮蓝色预警[IV/一般]",
        "effective": "2026/02/04 16:40",
        "description": "延庆区气象台04日16时40分发布寒潮蓝色预警，受强冷空气影响，预计5日至7日延庆区将出现寒潮天气，最低气温降幅8℃左右，5日至7日最低气温降至-14℃左右，请注意防范。",
        "longitude": 115.9625,
        "latitude": 40.4577,
        "type": "p0004004",
        "title": "北京市延庆区发布寒潮蓝色预警"
      },
      {
        "id": "11010741600000_20260204163534",
        "headline": "石景山区气象台发布寒潮蓝色预警[IV/一般]",
        "effective": "2026/02/04 16:40",
        "description": "石景山区气象台04日16时40分发布寒潮蓝色预警，受强冷空气影响，预计5日至7日石景山区将出现寒潮天气，最低气温降幅8℃左右，5日至7日最低气温降至-9℃左右，请注意防范。",
        "longitude": 116.1954,
        "latitude": 39.9146,
        "type": "p0004004",
        "title": "北京市石景山区发布寒潮蓝色预警"
      },
      {
        "id": "11010641600000_20260204164204",
        "headline": "丰台区气象台发布寒潮蓝色预警[IV/一般]",
        "effective": "2026/02/04 16:40",
        "description": "丰台区气象台04日16时40分发布寒潮蓝色预警，受强冷空气影响，预计5日至7日丰台区将出现寒潮天气，最低气温降幅8℃左右，5日至7日最低气温降至-9℃左右，请注意防范。",
        "longitude": 116.287,
        "latitude": 39.8636,
        "type": "p0004004",
        "title": "北京市丰台区发布寒潮蓝色预警"
      },
      {
        "id": "21112241600000_20260204163900",
        "headline": "盘山县气象台发布寒潮黄色预警信号[III级/较大]",
        "effective": "2026/02/04 16:39",
        "description": "寒潮黄色预警信号：预计2月5日到6日，盘山县最低气温将下降10℃到12℃。6日早间最低气温可达零下19℃到零下18℃。预计5日8时到20时，陆地偏北风5到6级，阵风7到8级，局部9级。请注意增添衣物，预防低温引发的不适，设施农业做好保温。盘山县气象台2026年02月04日16时39分发布",
        "longitude": 121.9853,
        "latitude": 41.2407,
        "type": "p0004003",
        "title": "辽宁省盘锦市盘山县发布寒潮黄色预警"
      },
      {
        "id": "13043541600000_20260204163808",
        "headline": "曲周县气象台发布大风蓝色预警[Ⅳ级/一般]",
        "effective": "2026/02/04 16:38",
        "description": "曲周县气象台2026年02月04日16时38分发布大风蓝色预警信号：预计明天白天我县全部乡镇将受大风天气影响，平均风力4～6级，阵风风力可达7级，请注意防范。",
        "longitude": 114.9576,
        "latitude": 36.7734,
        "type": "p0007004",
        "title": "河北省邯郸市曲周县发布大风蓝色预警"
      },
      {
        "id": "21142141600000_20260204163800",
        "headline": "绥中县气象台发布寒潮蓝色预警信号[Ⅳ级/一般]",
        "effective": "2026/02/04 16:38",
        "description": "寒潮蓝色预警信号：预计4日夜间到6日，绥中县最低气温将下降8℃到11℃，7日早晨最低气温零下17℃；预计4日20时到6日20时渤海中部海域偏北风5到6级、阵风7到9级，4日20时到6日08时绥中县偏北风5到6级、阵风7到9级，请注意防风防寒，建议水产养殖业采取防护措施。绥中县气象台2026年02月04日16时38分发布",
        "longitude": 120.3421,
        "latitude": 40.3284,
        "type": "p0004004",
        "title": "辽宁省葫芦岛市绥中县发布寒潮蓝色预警"
      },
      {
        "id": "21110441600000_20260204163700",
        "headline": "盘锦市大洼区气象台发布寒潮黄色预警信号[III级/较大]",
        "effective": "2026/02/04 16:37",
        "description": "寒潮黄色预警信号：预计2月5日到6日，大洼区最低气温将下降10℃到12℃。6日早间最低气温可达零下19℃到零下18℃。预计5日8时到20时，陆地偏北风5到6级，阵风7到8级，局部9级。请注意添衣保暖，预防低温引发的不适，设施农作物等采取防寒措施，做好保温工作。盘锦市大洼区气象台2026年02月04日16时37分发布",
        "longitude": "",
        "latitude": "",
        "type": "p0004003",
        "title": "发布寒潮黄色预警"
      },
      {
        "id": "53052141600000_20260204163827",
        "headline": "施甸县气象台发布森林火险橙色预警[Ⅱ级/严重]",
        "effective": "2026/02/04 16:36",
        "description": "施甸县气象台2026年2月4日16时36分升级发布森林火险气象Ⅱ级预警：预计未来7天，我县大部分乡镇晴朗少雨，空气干燥，午后瞬时风速较大，森林火险气象等级将维持高危险级别，容易出现森林火灾，请注意防范。",
        "longitude": 99.1838,
        "latitude": 24.7308,
        "type": "p0000002",
        "title": "云南省保山市施甸县发布森林火险橙色预警"
      },
      {
        "id": "15252741600000_20260204163448",
        "headline": "太仆寺旗气象台发布寒潮蓝色预警[IV级/一般]",
        "effective": "2026/02/04 16:36",
        "description": "太仆寺旗气象台2026年02月04日16时24分发布寒潮蓝色预警信号：48小时内太仆寺旗最低气温将要下降8℃以上，6日最低气温降至-28℃～-25℃；5、6级（短时7级）西北风，野外伴有吹雪。请有关单位和人员做好防范准备。",
        "longitude": 115.2873,
        "latitude": 41.8952,
        "type": "p0004004",
        "title": "内蒙古自治区锡林郭勒盟太仆寺旗发布寒潮蓝色预警"
      },
      {
        "id": "37142441600000_20260204163552",
        "headline": "临邑县气象台发布寒潮蓝色预警[IV级/一般]",
        "effective": "2026/02/04 16:35",
        "description": "临邑县气象台2026年02月04日16时35分发布寒潮蓝色预警信号：受较强冷空气影响，预计5至7日我县全部乡镇及街道将出现寒潮天气，气温下降8～10℃。5日白天，东北风4～5级，阵风7级，夜间风力减小；6日最高气温-1℃左右，夜间有零星小雪；7日和8日早晨最低气温-10～-8℃，9日气温开始回升。请注意防范。",
        "longitude": 116.867,
        "latitude": 37.192,
        "type": "p0004004",
        "title": "山东省德州市临邑县发布寒潮蓝色预警"
      },
      {
        "id": "23032141600000_20260204163216",
        "headline": "鸡东县气象台发布道路冰雪黄色预警[III级/较重]",
        "effective": "2026/02/04 16:35",
        "description": "鸡东县气象台2026年2月4日16时20分发布道路冰雪黄色预警信号：受降雪天气影响，预计未来24小时，鸡东县全部乡镇将出现对交通有一定影响的道路结冰或积雪，请有关单位和个人注意做好预防工作。",
        "longitude": 131.1489,
        "latitude": 45.2509,
        "type": "p0000003",
        "title": "黑龙江省鸡西市鸡东县发布道路冰雪黄色预警"
      },
      {
        "id": "37011641600000_20260204163404",
        "headline": "济南市气象台发布寒潮蓝色预警信号[Ⅳ/一般]",
        "effective": "2026/02/04 16:35",
        "description": "济南市气象台2026年2月4日16时35分发布莱芜区、钢城区寒潮蓝色预警信号。受较强冷空气影响，5日至7日莱芜区、钢城区全部镇街将出现寒潮天气。预计5日北风较大，平均风力4～5级阵风7～8级；5日至7日气温将持续下降，过程降温幅度8～12℃，6日白天最高气温-2℃左右，7日早晨气温降至最低，城区-8℃左右，山区-12℃左右。请注意防范。",
        "longitude": "",
        "latitude": "",
        "type": "p0004004",
        "title": "发布寒潮蓝色预警"
      },
      {
        "id": "11011441600000_20260204163448",
        "headline": "昌平区气象台发布大风黄色预警[III/较重]",
        "effective": "2026/02/04 16:35",
        "description": "昌平区气象台04日16时35分发布大风黄色预警，预计，4日后半夜至5日白天昌平区有4级左右偏北风，阵风8、9级，山区局地阵风可达10级以上，请注意防范。",
        "longitude": 116.2359,
        "latitude": 40.2181,
        "type": "p0007003",
        "title": "北京市昌平区发布大风黄色预警"
      },
      {
        "id": "13040641600000_20260204163435",
        "headline": "峰峰矿区气象台发布大风蓝色预警[Ⅳ级/一般]",
        "effective": "2026/02/04 16:34",
        "description": "峰峰矿区气象台2026年02月04日16时31分发布大风蓝色预警信号：预计明天白天我区全部乡镇将受大风天气影响，平均风力4-5级，阵风6-7级，请注意防范。",
        "longitude": 114.2099,
        "latitude": 36.4205,
        "type": "p0007004",
        "title": "河北省邯郸市峰峰矿区发布大风蓝色预警"
      },
      {
        "id": "21100041600000_20260204163400",
        "headline": "辽阳市气象台发布寒潮黄色预警信号[III级/较大]",
        "effective": "2026/02/04 16:34",
        "description": "寒潮黄色预警信号：预计5日到6日，辽阳市区最低气温将下降10℃以上，7日早晨最低气温零下23℃到零下21℃。预计5日偏北风4到6级，阵风7到8级,请市民注意增添衣物，预防低温引发的不适，设施农业做好保温。辽阳市气象台2026年02月04日16时34分发布",
        "longitude": 123.1653,
        "latitude": 41.2685,
        "type": "p0004003",
        "title": "辽宁省辽阳市发布寒潮黄色预警"
      },
      {
        "id": "13063041600000_20260204163350",
        "headline": "涞源县气象台发布寒潮蓝色预警[Ⅳ级/一般]",
        "effective": "2026/02/04 16:33",
        "description": "涞源县气象台2026年02月04日16时32分发布寒潮蓝色预警信号：受冷空气影响，预计5-7日，涞源县全部乡镇有寒潮天气，最低气温持续下降10~12℃。6-7日早晨最低气温降至-16~-12℃，请注意防范。",
        "longitude": 114.6926,
        "latitude": 39.3576,
        "type": "p0004004",
        "title": "河北省保定市涞源县发布寒潮蓝色预警"
      },
      {
        "id": "23032141600000_20260204163129",
        "headline": "鸡东县气象台发布寒潮蓝色预警[IV级/一般]",
        "effective": "2026/02/04 16:33",
        "description": "鸡东县气象台2026年2月4日16时20分发布寒潮蓝色预警信号：受冷空气影响，预计4日夜间到6日夜间，鸡东县全部乡镇最低气温将下降8℃以上，最低气温可达-25℃左右。请有关单位和个人注意做好预防工作。",
        "longitude": 131.1489,
        "latitude": 45.2509,
        "type": "p0004004",
        "title": "黑龙江省鸡西市鸡东县发布寒潮蓝色预警"
      },
      {
        "id": "15250241600000_20260204162751",
        "headline": "锡林浩特市气象台发布寒潮蓝色预警[IV级/一般]",
        "effective": "2026/02/04 16:33",
        "description": "锡林浩特市气象台2026年02月04日16时20分发布寒潮蓝色预警信号：48小时内锡林浩特市最低气温将要下降8℃以上，6日最低气温降至-34℃～-32℃，5、6级（短时7级）西北风，野外伴有吹雪。请有关单位和人员做好防范准备。",
        "longitude": 116.0919,
        "latitude": 43.9443,
        "type": "p0004004",
        "title": "内蒙古自治区锡林郭勒盟锡林浩特市发布寒潮蓝色预警"
      },
      {
        "id": "15252541600000_20260204163011",
        "headline": "东乌珠穆沁旗气象台发布寒潮蓝色预警[IV级/一般]",
        "effective": "2026/02/04 16:32",
        "description": "东乌珠穆沁旗气象台2026年02月04日16时24分发布寒潮蓝色预警信号： 48小时内东乌珠穆沁旗最低气温将要下降8℃以上，最低气温降至-35℃～-30℃，5、6级（短时7级）西北风，野外伴有吹雪。请有关单位和人员做好防范准备。",
        "longitude": 116.98,
        "latitude": 45.5103,
        "type": "p0004004",
        "title": "内蒙古自治区锡林郭勒盟东乌珠穆沁旗发布寒潮蓝色预警"
      },
      {
        "id": "21110041600000_20260204163200",
        "headline": "盘锦市气象台发布寒潮黄色预警信号[III级/较大]",
        "effective": "2026/02/04 16:32",
        "description": "寒潮黄色预警信号：预计2月5日到6日，盘锦市兴隆台区、双台子区最低气温将下降10℃到12℃。6日早间最低气温可达零下19℃到零下18℃。预计5日8时到20时，陆地偏北风5到6级，阵风7到8级，局部9级。请注意增添衣物，预防低温引发的不适，设施农业做好保温。盘锦市气象台2026年02月04日16时32分发布",
        "longitude": 122.0653,
        "latitude": 41.1196,
        "type": "p0004003",
        "title": "辽宁省盘锦市发布寒潮黄色预警"
      },
      {
        "id": "22242441600000_20260204162845",
        "headline": "汪清县气象台发布道路冰雪蓝色预警[IV级/一般]",
        "effective": "2026/02/04 16:31",
        "description": "汪清县气象台2月4日16时30分发布道路冰雪蓝色预警信号：预计未来24小时，受雨雪天气影响，我县县域将出现对交通有影响的道路结冰或积雪，县应急管理局、县气象局联合提醒注意做好防范工作。",
        "longitude": 129.7662,
        "latitude": 43.3154,
        "type": "p0000004",
        "title": "吉林省延边朝鲜族自治州汪清县发布道路冰雪蓝色预警"
      },
      {
        "id": "15252841600000_20260204162924",
        "headline": "镶黄旗气象台发布寒潮蓝色预警[IV级/一般]",
        "effective": "2026/02/04 16:31",
        "description": "镶黄旗气象台2026年02月04日16时25分发布寒潮蓝色预警信号：48小时内镶黄旗最低气温将要下降8℃以上，6日最低气温降至-28℃～-25℃；5、6级（短时7级）西北风，野外伴有吹雪。请有关单位和人员做好防范准备。",
        "longitude": 113.8439,
        "latitude": 42.2392,
        "type": "p0004004",
        "title": "内蒙古自治区锡林郭勒盟镶黄旗发布寒潮蓝色预警"
      },
      {
        "id": "37142541600000_20260204163057",
        "headline": "齐河县气象台发布寒潮蓝色预警[IV级/一般]",
        "effective": "2026/02/04 16:30",
        "description": "齐河县气象台2026年02月04日16时30分发布寒潮蓝色预警信号：受较强冷空气影响，预计5至7日我县全部乡镇及街道将出现寒潮天气，气温下降8～10℃。5日白天，东北风4～5级，阵风7级，夜间风力减小；6日最高气温0℃左右，夜间有零星小雪；7日和8日早晨最低气温-10～-8℃，9日气温开始回升，请注意防范。",
        "longitude": 116.7584,
        "latitude": 36.7955,
        "type": "p0004004",
        "title": "山东省德州市齐河县发布寒潮蓝色预警"
      },
      {
        "id": "37112241600000_20260204162943",
        "headline": "莒县气象台发布寒潮蓝色预警信号[Ⅳ级/一般]",
        "effective": "2026/02/04 16:30",
        "description": "莒县气象台2026年2月4日16时18分发布寒潮蓝色预警信号：受强冷空气影响，预计5—7日，我县将出现寒潮天气，气温明显下降，过程降温幅度8～10℃，7日和8日早晨最低气温-9℃左右，部分镇街可达-10℃以下。5日下午到6日白天偏北风4～5级、阵风7级。请注意防范。",
        "longitude": 118.8329,
        "latitude": 35.5881,
        "type": "p0004004",
        "title": "山东省日照市莒县发布寒潮蓝色预警"
      },
      {
        "id": "11010541600000_20260204160504",
        "headline": "朝阳区气象台发布寒潮蓝色预警[IV/一般]",
        "effective": "2026/02/04 16:30",
        "description": "朝阳区气象台04日16时30分发布寒潮蓝色预警，受强冷空气影响，预计5日至7日朝阳区将出现寒潮天气，最低气温降幅8℃左右，5日至7日最低气温降至-9℃左右，请注意防范。",
        "longitude": 116.4864,
        "latitude": 39.9215,
        "type": "p0004004",
        "title": "北京市朝阳区发布寒潮蓝色预警"
      },
      {
        "id": "15062441600000_20260204162857",
        "headline": "鄂托克旗气象台发布大风蓝色预警[IV级/一般]",
        "effective": "2026/02/04 16:29",
        "description": "鄂托克旗气象台2026年02月04日16时27分发布大风蓝色预警信号：24小时内鄂托克旗将受大风影响，平均风力5~6级，阵风7级以上。请有关单位和人员做好防范准备。",
        "longitude": 107.9826,
        "latitude": 39.0958,
        "type": "p0007004",
        "title": "内蒙古自治区鄂尔多斯市鄂托克旗发布大风蓝色预警"
      },
      {
        "id": "13040741600000_20260204162841",
        "headline": "肥乡区气象台发布大风蓝色预警[Ⅳ级/一般]",
        "effective": "2026/02/04 16:28",
        "description": "肥乡区气象台2026年02月04日16时28分发布大风蓝色预警信号：预计明天白天我区全部镇将受大风天气影响，平均风力4~6级，阵风风力可达7级，请注意防范。",
        "longitude": "",
        "latitude": "",
        "type": "p0007004",
        "title": "发布大风蓝色预警"
      },
      {
        "id": "13043041600000_20260204162740",
        "headline": "邱县气象台发布大风蓝色预警[Ⅳ级/一般]",
        "effective": "2026/02/04 16:27",
        "description": "邱县气象台2026年02月04日16时27分发布大风蓝色预警信号：预计明天白天我县全部乡镇将受大风天气影响，平均风力4～6级，阵风风力可达7级，请注意防范。",
        "longitude": 115.1686,
        "latitude": 36.8133,
        "type": "p0007004",
        "title": "河北省邯郸市邱县发布大风蓝色预警"
      },
      {
        "id": "13110341600000_20260204162718",
        "headline": "冀州区气象台发布大风蓝色预警[Ⅳ级/一般]",
        "effective": "2026/02/04 16:27",
        "description": "冀州区气象台2026年02月04日16时14分发布大风蓝色预警信号：预计明天白天，冀州区全部乡镇有东北风4~6级，阵风7级，个别乡镇可达8级。请注意防范。",
        "longitude": "",
        "latitude": "",
        "type": "p0007004",
        "title": "发布大风蓝色预警"
      },
      {
        "id": "13043141600000_20260204162712",
        "headline": "鸡泽县气象台发布大风蓝色预警[Ⅳ级/一般]",
        "effective": "2026/02/04 16:27",
        "description": "鸡泽县气象台2026年02月04日16时22分发布大风蓝色预警信号：预计明天白天我县全部乡镇将受大风天气影响，平均风力4~6级，阵风风力可达7级，请注意防范。",
        "longitude": 114.8785,
        "latitude": 36.9149,
        "type": "p0007004",
        "title": "河北省邯郸市鸡泽县发布大风蓝色预警"
      },
      {
        "id": "15252441600000_20260204162538",
        "headline": "苏尼特右旗气象台发布寒潮蓝色预警[IV级/一般]",
        "effective": "2026/02/04 16:26",
        "description": "苏尼特右旗气象台2026年02月04日16时15分发布寒潮蓝色预警信号：48小时内苏尼特右旗最低气温将要下降8℃以上，6日最低气温降至-28℃左右，5、6级（短时7级）西北风。请有关单位和人员做好防范准备。",
        "longitude": 112.6554,
        "latitude": 42.7467,
        "type": "p0004004",
        "title": "内蒙古自治区锡林郭勒盟苏尼特右旗发布寒潮蓝色预警"
      },
      {
        "id": "23078141600000_20260204162146",
        "headline": "铁力市气象局发布寒潮蓝色预警[IV级/一般]",
        "effective": "2026/02/04 16:26",
        "description": "铁力市气象台2026年02月04日16时20分发布寒潮蓝色预警信号：预计未来48小时内，我市最低气温将要下降8℃以上。请有关单位和个人注意做好预防工作。",
        "longitude": 128.0306,
        "latitude": 46.9858,
        "type": "p0004004",
        "title": "黑龙江省伊春市铁力市发布寒潮蓝色预警"
      },
      {
        "id": "13112441600000_20260204162617",
        "headline": "饶阳县气象台发布大风蓝色预警[Ⅳ级/一般]",
        "effective": "2026/02/04 16:26",
        "description": "饶阳县气象台2026年02月04日16时18分发布大风蓝色预警信号：预计明天白天，饶阳县全部乡镇有东北风4~6级，阵风7级，部分乡镇可达8级。请注意防范。",
        "longitude": 115.7266,
        "latitude": 38.2327,
        "type": "p0007004",
        "title": "河北省衡水市饶阳县发布大风蓝色预警"
      },
      {
        "id": "21022441600000_20260204162600",
        "headline": "长海县气象台发布大风黄色预警信号[III级/较大]",
        "effective": "2026/02/04 16:26",
        "description": "大风黄色预警信号：预计5日5时到20时，长海县各镇偏北风5到6级、阵风7级，8时前后增强到6到7级、阵风8到9级，请相关部门做好防大风工作。谨防高空坠物、注意出行及作业安全。长海县气象台2026年02月04日16时26分发布",
        "longitude": 122.5878,
        "latitude": 39.2724,
        "type": "p0007003",
        "title": "辽宁省大连市长海县发布大风黄色预警"
      },
      {
        "id": "21142141600000_20260204162600",
        "headline": "绥中县气象台发布大风蓝色预警信号[Ⅳ级/一般]",
        "effective": "2026/02/04 16:26",
        "description": "大风蓝色预警信号：预计4日20时到5日8时，葫芦岛市绥中县、渤海中部偏北风5到6级、阵风7到8级，请注意防范大风对户外、水上、高空作业和出行带来的不利影响，注意森林防火。绥中县气象台2026年02月04日16时26分发布",
        "longitude": 120.3421,
        "latitude": 40.3284,
        "type": "p0007004",
        "title": "辽宁省葫芦岛市绥中县发布大风蓝色预警"
      },
      {
        "id": "15253141600000_20260204161852",
        "headline": "多伦县气象台发布寒潮蓝色预警[IV级/一般]",
        "effective": "2026/02/04 16:25",
        "description": "多伦县气象台2026年02月04日16时16分发布寒潮蓝色预警信号：48小时内多伦县最低气温将要下降8℃以上，6日最低气温降至-28℃～-25℃；5、6级（短时7级）西北风，野外伴有吹雪。请有关单位和人员做好防范准备。",
        "longitude": 116.4773,
        "latitude": 42.198,
        "type": "p0004004",
        "title": "内蒙古自治区锡林郭勒盟多伦县发布寒潮蓝色预警"
      },
      {
        "id": "45032541600000_20260204162825",
        "headline": "兴安县气象台发布大风蓝色预警信号[IV级/一般]",
        "effective": "2026/02/04 16:25",
        "description": "兴安县气象台4日16时25分发布大风蓝色预警信号：预计未来24小时内我县将出现6级（或阵风7级）以上大风，请做好防范。",
        "longitude": 110.6708,
        "latitude": 25.6096,
        "type": "p0007004",
        "title": "广西壮族自治区桂林市兴安县发布大风蓝色预警"
      },
      {
        "id": "13043341600000_20260204162541",
        "headline": "馆陶县气象台发布大风蓝色预警[Ⅳ级/一般]",
        "effective": "2026/02/04 16:25",
        "description": "馆陶县气象台2026年02月04日16时21分发布大风蓝色预警信号：预计明天白天我县全部乡镇将受大风天气影响，平均风力4~6级，阵风风力可达7级，请注意防范。",
        "longitude": 115.2891,
        "latitude": 36.5395,
        "type": "p0007004",
        "title": "河北省邯郸市馆陶县发布大风蓝色预警"
      },
      {
        "id": "13040841600000_20260204162522",
        "headline": "邯郸市永年区气象台发布大风蓝色预警[Ⅳ级/一般]",
        "effective": "2026/02/04 16:25",
        "description": "邯郸市永年区气象台2026年02月04日16时25分发布大风蓝色预警信号：预计明天白天我区全部乡镇将受大风天气影响，平均风力4-5级，阵风6-7级，请注意防范。",
        "longitude": "",
        "latitude": "",
        "type": "p0007004",
        "title": "发布大风蓝色预警"
      },
      {
        "id": "15252241600000_20260204162249",
        "headline": "阿巴嘎旗气象台发布寒潮蓝色预警[IV级/一般]",
        "effective": "2026/02/04 16:25",
        "description": "阿巴嘎旗气象台2026年02月04日16时21分发布寒潮蓝色预警信号：48小时内，阿巴嘎旗最低气温将下降8℃以上，6日最低气温降至-33℃～-30℃，5、6级（短时7级）西北风，野外伴有吹雪。请有关单位和人员做好防范准备。",
        "longitude": 114.9706,
        "latitude": 44.0227,
        "type": "p0004004",
        "title": "内蒙古自治区锡林郭勒盟阿巴嘎旗发布寒潮蓝色预警"
      },
      {
        "id": "11010541600000_20260204160815",
        "headline": "朝阳区气象台发布大风蓝色预警[IV/一般]",
        "effective": "2026/02/04 16:25",
        "description": "朝阳区气象台04日16时25分发布大风蓝色预警，预计4日后半夜至5日白天，朝阳区有4级左右偏北风，阵风7、8级，请注意防范。",
        "longitude": 116.4864,
        "latitude": 39.9215,
        "type": "p0007004",
        "title": "北京市朝阳区发布大风蓝色预警"
      },
      {
        "id": "37030241600000_20260204162500",
        "headline": "淄川区气象台发布寒潮蓝色预警[IV级/一般]",
        "effective": "2026/02/04 16:25",
        "description": "淄川区气象台2026年02月04日16时25分发布寒潮蓝色预警信号：受冷空气影响，预计5-7日我区全部镇和街道将出现寒潮天气，最低气温降幅7～9℃，7日早晨最低气温-10～-7℃，南部山区局部低于-12℃。另外，5日有平均风力4～5级阵风7～8级的偏北大风。请注意防范。",
        "longitude": 117.9677,
        "latitude": 36.6473,
        "type": "p0004004",
        "title": "山东省淄博市淄川区发布寒潮蓝色预警"
      },
      {
        "id": "13112541600000_20260204162500",
        "headline": "安平县气象台发布大风蓝色预警[Ⅳ级/一般]",
        "effective": "2026/02/04 16:25",
        "description": "安平县气象台2026年02月04日16时19分发布大风蓝色预警信号：预计明天白天，我县全部乡镇有东北风4~6级，阵风7级，个别乡镇可达8级。请注意防范。",
        "longitude": 115.5196,
        "latitude": 38.2335,
        "type": "p0007004",
        "title": "河北省衡水市安平县发布大风蓝色预警"
      },
      {
        "id": "15253041600000_20260204161529",
        "headline": "正蓝旗气象台发布寒潮蓝色预警[IV级/一般]",
        "effective": "2026/02/04 16:24",
        "description": "正蓝旗气象台2026年02月04日16时12分发布寒潮蓝色预警信号：48小时内正蓝旗最低气温将要下降8℃以上，6日最低气温降至-28℃～-25℃；5、6级（短时7级）西北风，野外伴有吹雪。请有关单位和人员做好防范准备。",
        "longitude": 116.0033,
        "latitude": 42.2459,
        "type": "p0004004",
        "title": "内蒙古自治区锡林郭勒盟正蓝旗发布寒潮蓝色预警"
      },
      {
        "id": "21092141600000_20260204162400",
        "headline": "阜新蒙古族自治县气象台发布寒潮蓝色预警信号[Ⅳ级/一般]",
        "effective": "2026/02/04 16:24",
        "description": "寒潮蓝色预警信号：预计5日8时到7日8时，阜新蒙古族自治县最低气温将下降10℃到12℃，6日、7日和8日早晨最低气温为-24℃到-20℃。5日白天到夜间，阜新蒙古族自治县西北风5到6级，阵风7到9级，请注意添衣保暖，对设施农业、农作物采取一定的防护措施。阜新蒙古族自治县气象台2026年02月04日16时24分发布",
        "longitude": 121.7431,
        "latitude": 42.0586,
        "type": "p0004004",
        "title": "辽宁省阜新市阜新蒙古族自治县发布寒潮蓝色预警"
      },
      {
        "id": "13060041600000_20260204162348",
        "headline": "保定市气象台发布寒潮蓝色预警[Ⅳ级/一般]",
        "effective": "2026/02/04 16:23",
        "description": "保定市气象台2026年02月04日16时20分发布寒潮蓝色预警信号：受冷空气影响，预计5-7日，涞水县、阜平县、涞源县有寒潮天气，最低气温持续下降10~12℃。6-7日早晨上述地区最低气温降至-16~-12℃，请注意防范。",
        "longitude": 115.4606,
        "latitude": 38.8642,
        "type": "p0004004",
        "title": "河北省保定市发布寒潮蓝色预警"
      },
      {
        "id": "15252341600000_20260204162313",
        "headline": "苏尼特左旗气象台发布寒潮蓝色预警[IV级/一般]",
        "effective": "2026/02/04 16:23",
        "description": "苏尼特左旗气象台2026年02月04日16时18分发布寒潮蓝色预警信号：48小时内苏尼特左旗最低气温将要下降8℃以上，6日最低气温降至-35℃～-30℃，5、6级（短时7级）西北风，野外伴有吹雪。请有关单位和人员做好防范准备。",
        "longitude": 113.6534,
        "latitude": 43.8541,
        "type": "p0004004",
        "title": "内蒙古自治区锡林郭勒盟苏尼特左旗发布寒潮蓝色预警"
      },
      {
        "id": "13112641600000_20260204162335",
        "headline": "故城县气象台发布大风蓝色预警[Ⅳ级/一般]",
        "effective": "2026/02/04 16:23",
        "description": "故城县气象台2026年02月04日16时18分发布大风蓝色预警信号：预计明天白天，故城县全部乡镇有东北风4~6级，阵风7级，个别乡镇可达8级。请注意防范。",
        "longitude": 115.9667,
        "latitude": 37.351,
        "type": "p0007004",
        "title": "河北省衡水市故城县发布大风蓝色预警"
      },
      {
        "id": "15252941600000_20260204162249",
        "headline": "正镶白旗气象台发布寒潮蓝色预警[IV级/一般]",
        "effective": "2026/02/04 16:23",
        "description": "正镶白旗气象台2026年02月04日16时19分发布寒潮蓝色预警信号：48小时内全旗最低气温将要下降8℃以上，6日最低气温降至-28℃～-25℃；5、6级（短时7级）西北风，野外伴有吹雪。请有关单位和人员做好防范准备。",
        "longitude": 115.0314,
        "latitude": 42.2868,
        "type": "p0004004",
        "title": "内蒙古自治区锡林郭勒盟正镶白旗发布寒潮蓝色预警"
      },